stop_id,stop_code,stop_name,stop_desc,stop_lat,stop_lon,zone_id,stop_url,location_type,parent_station,stop_timezone,wheelchair_boarding,level_id,platform_code
1,48044035,BIZKAIA ZUBIA/PUENTE BIZKAIA (1),,43.3239867296496,-3.01547359044326,2,,0,,Europe/Madrid,1,0,
2,48044070,SANTA ANA 2 (2),,43.3252296245016,-3.01338811446609,2,,0,,Europe/Madrid,1,0,
3,48044077,SANTA ANA PLAZA (3),,43.3234361032545,-3.01164511045973,2,,0,,Europe/Madrid,1,0,
4,48044054,EDUARDO COSTE (4),,43.3208166042736,-3.01140806244089,2,,0,,Europe/Madrid,1,0,
5,48044071,AMAIA 22 (5),,43.3226816180639,-3.00961488579527,2,,0,,Europe/Madrid,1,0,
6,48054049,AMAIA (ANBULATORIOA) (6),,43.3243206061316,-3.0075552848064,2,,0,,Europe/Madrid,1,0,
7,48054037,LAMIAKO (METRO) (7),,43.321546540272,-3.00097432186212,2,,0,,Europe/Madrid,1,0,
8,48054022,ITURRIONDO (METRO LEIOA) (8),,43.3184503206873,-2.99095875223417,2,,0,,Europe/Madrid,1,0,
9,48054039,UDONDO (9),,43.3200877603876,-2.98679862461628,2,,0,,Europe/Madrid,1,0,
11,48054002,DONIBANE/SAN JUAN (KONTSERBATORIOA) (11),,43.3238241584176,-2.98298659476083,2,,0,,Europe/Madrid,1,0,
12,48054003,ELEXALDE (AUZO ETXEA/CENTRO CÍVICO) (12),,43.3257696561667,-2.98684648376494,2,,0,,Europe/Madrid,1,0,
13,48054004,ONDIZ (13),,43.3278682202758,-2.99107675314668,2,,0,,Europe/Madrid,1,0,
14,48054042,ARTATZAGANE  (FARMAZIA) (14),,43.3324775656445,-2.98897215254068,2,,0,,Europe/Madrid,1,0,
15,48054043,ALDEKOENA (15),,43.3331622107629,-2.98522880953395,2,,0,,Europe/Madrid,0,0,
16,48054013,SARRIENA (IRLANDESAS) (16),,43.3336570997499,-2.98265054113283,2,,0,,Europe/Madrid,1,0,
17,48054012,J.M. BARANDIARAN (INSTITUTUA) (17),,43.3338259370983,-2.97448982879328,2,,0,,Europe/Madrid,1,0,
18,48902054,LIBAO (AROSTEGI) (18),,43.3306436706505,-2.96144070045618,2,,0,,Europe/Madrid,0,0,
20,48054032,LANGILERIA (TXOPOETA/LA CHOPERA) (20),,43.3194221486105,-2.99466706859767,2,,0,,Europe/Madrid,0,0,
21,48902055,LIBAO (AROSTEGI) (21),,43.3302297484126,-2.96230440844068,2,,0,,Europe/Madrid,0,0,
22,48054014,J.M. BARANDIARAN (INSTITUTUA) (22),,43.3338624900959,-2.97406484931442,2,,0,,Europe/Madrid,1,0,
23,48054015,SARRIENA (IRLANDESAS) (23),,43.3337831804183,-2.98276152621791,2,,0,,Europe/Madrid,0,0,
24,48054031,ELEXALDE  (UDALETXEA/AYUNTAMIENTO) (24),,43.3268412076545,-2.98690792385324,2,,0,,Europe/Madrid,0,0,
27,48054027,OTSOBARRENA (METRO LEIOA) (27),,43.3189709184944,-2.99151512498667,2,,0,,Europe/Madrid,0,0,
28,48054035,LANGILERÍA (TXOPOETA/LA CHOPERA) (28),,43.3195932351657,-2.99465472084149,2,,0,,Europe/Madrid,1,0,
29,48054036,LAMIAKO (METRO) (29),,43.3216816098081,-3.00087565829693,2,,0,,Europe/Madrid,1,0,
30,48044081,AMAIA 29 (ANBULATORIOA) (30),,43.3238342985934,-3.00841870344087,2,,0,,Europe/Madrid,1,0,
31,48054069,SANTA ANA (31),,43.3220153015372,-3.00934344849401,2,,0,,Europe/Madrid,1,0,
32,48044034,EDUARDO COSTE (32),,43.3209336833705,-3.01121075532,2,,0,,Europe/Madrid,0,0,
33,48044057,AVDA. DEL ANGEL 34 (LA VENTA) (33),,43.3614410834101,-3.01597219008689,2,,0,,Europe/Madrid,1,0,
34,48044014,MAIDAGAN (PARKEA) (34),,43.359905408814,-3.01099579082861,2,,0,,Europe/Madrid,0,0,
35,48044084,BIDEZABAL (VENANCIOS) (35),,43.3579974927742,-3.00939746612316,2,,0,,Europe/Madrid,1,0,
36,48044046,ALGORTAKO ETORB. 47 (KASINOA) (36),,43.3481914475091,-3.01064239668292,2,,0,,Europe/Madrid,1,0,
37,48044047,ALGORTAKO ETORB. 31 (SAN IGNACIO) (37),,43.3437433878772,-3.00842096052179,2,,0,,Europe/Madrid,1,0,
38,48044048,ALGORTAKO ETORB. 17 (TXOMINTXU) (38),,43.3415822150818,-3.00945699023027,2,,0,,Europe/Madrid,1,0,
39,48044049,ALGORTAKO ETORB. 13 (REGOYOS) (39),,43.3388268768747,-3.00876583159644,2,,0,,Europe/Madrid,1,0,
40,48044032,LA AVANZADA 28 (ANTIGUO GOLF) (40),,43.3337936040308,-3.0037076078361,2,,0,,Europe/Madrid,0,0,
41,48054006,ARTATZA (SUHILTZAILEAK/BOMBEROS) (41),,43.3299935936651,-2.99650379675314,2,,0,,Europe/Madrid,1,0,
42,48054007,ONDIZ (42),,43.3274630268936,-2.99123715946542,2,,0,,Europe/Madrid,1,0,
43,48054008,ELEXALDE (SAKONETA) (43),,43.3258238985439,-2.98798132831635,2,,0,,Europe/Madrid,1,0,
44,48043028,PUENTE BUSTERRI (ATERPETXEA/ALBERGUE) (44),,43.4126310932949,-2.94287865695506,3,,0,,Europe/Madrid,1,0,
55,48054005,ARTATZA (SUHILTZAILEAK/BOMBEROS) (55),,43.3304888363373,-2.99623239840443,2,,0,,Europe/Madrid,1,0,
56,48044044,LA AVANZADA 11 (ANTIGUO GOLF) (56),,43.3344238970429,-3.00444767044962,2,,0,,Europe/Madrid,0,0,
57,48044039,ALGORTAKO ETORB. 12 (REGOYOS) (57),,43.3392374961076,-3.00861414841791,2,,0,,Europe/Madrid,1,0,
58,48044040,ALGORTAKO ETORB. 16 (TXOMINTXU) (58),,43.3420189427889,-3.00937193043043,2,,0,,Europe/Madrid,1,0,
59,48044041,ALGORTAKO ETORB. 32 (SAN IGNACIO) (59),,43.3435228009365,-3.00808164504428,2,,0,,Europe/Madrid,1,0,
60,48044042,ALGORTAKO ETORB. 74 (KASINOA) (60),,43.3480564020971,-3.01039560200693,2,,0,,Europe/Madrid,1,0,
61,48044043,TELLETXE 2 (GELTOKIA/ESTACIÓN) (61),,43.3503787484379,-3.00952572695496,2,,0,,Europe/Madrid,0,0,
62,48044055,TELLETXE 40 (62),,43.3557461380648,-3.0118035639445,2,,0,,Europe/Madrid,1,0,
63,48044056,AV. DEL ANGEL 18 (63),,43.3586091301499,-3.01619370310791,2,,0,,Europe/Madrid,1,0,
64,48902070,LEGAZPI (64),,43.3030752791828,-2.97452734893449,2,,0,,Europe/Madrid,0,0,
65,48902004,ALTZAGA (PASAIA/PASAJE) (65),,43.3036798349873,-2.97701273898433,2,,0,,Europe/Madrid,1,0,
66,48902074,MADARIPEBIDEA (METRO) (66),,43.3142877908235,-2.98446203265622,2,,0,,Europe/Madrid,1,0,
68,48902078,MEZO 32 (JUANENA) (68),,43.316637461962,-2.9809714227362,2,,0,,Europe/Madrid,1,0,
69,48902079,MEZO 48 (SALITURRI) (69),,43.3150967554839,-2.97322230115393,2,,0,,Europe/Madrid,1,0,
70,48902080,MEZO 68-70 (BISTALAI) (70),,43.3146457011825,-2.96990524704578,2,,0,,Europe/Madrid,1,0,
71,48054001,SANTIMAMI (EROSKI) (71),,43.3191912984172,-2.9738974456641,2,,0,,Europe/Madrid,1,0,
84,48054009,DONIBANE/SAN JUAN (KONTSERBATORIOA) (84),,43.3239414049317,-2.98429393133266,2,,0,,Europe/Madrid,1,0,
85,48054010,SANTIMAMI (EROSKI) (85),,43.3185140924521,-2.97363135193959,2,,0,,Europe/Madrid,1,0,
86,48902081,MEZO 77-79 (BISTALAI) (86),,43.3150058913503,-2.96992973303301,2,,0,,Europe/Madrid,1,0,
87,48902082,MEZO 63 (SALITURRI) (87),,43.3154030146701,-2.97366611671949,2,,0,,Europe/Madrid,1,0,
88,48902084,MEZO 35 (JUANENA) (88),,43.3163851972779,-2.98016991207791,2,,0,,Europe/Madrid,0,0,
90,48902017,ETXEGORRI (METRO) (90),,43.3150180981473,-2.98613380122176,2,,0,,Europe/Madrid,0,0,
91,48902010,JOSE LUIS GOIOAGA (AXPEKO DARTSENA) (91),,43.3069028070622,-2.97722607048732,2,,0,,Europe/Madrid,1,0,
92,48044058,AVDA. DEL ANGEL 47 (LA VENTA) (92),,43.3615716363208,-3.01606231577068,2,,0,,Europe/Madrid,1,0,
93,48044059,AV. DEL ANGEL 23 (93),,43.3585190840382,-3.01619984949814,2,,0,,Europe/Madrid,0,0,
94,48044083,BIDEZABAL (METRO) (94),,43.3568401576038,-3.01209624190541,2,,0,,Europe/Madrid,1,0,
95,48044076,BIDEZABAL (VENANCIOS) (95),,43.3578984649842,-3.00912595878098,2,,0,,Europe/Madrid,0,0,
96,48044007,OLLARETXE 33 (EL REDENTOR) (96),,43.3556375858105,-3.00687343014228,2,,0,,Europe/Madrid,1,0,
97,48044008,LOS CHOPOS 93 (GETXO I) (97),,43.3527751504157,-3.00481882546202,2,,0,,Europe/Madrid,1,0,
98,48044009,LOS CHOPOS 51 (FADURA) (98),,43.3476966026377,-3.00021629357633,2,,0,,Europe/Madrid,1,0,
99,48044010,LOS CHOPOS 45 (99),,43.3434914753934,-3.00108003609483,2,,0,,Europe/Madrid,1,0,
100,48044011,LOS CHOPOS 35 (100),,43.3400968360207,-3.00208050193624,2,,0,,Europe/Madrid,1,0,
118,48044002,LOS CHOPOS 22 (118),,43.3398807293547,-3.00193121808597,2,,0,,Europe/Madrid,1,0,
119,48044003,LOS CHOPOS 40 (119),,43.3443379068986,-3.00048783665182,2,,0,,Europe/Madrid,1,0,
120,48044004,LOS CHOPOS 46 (FADURA) (120),,43.3486672908231,-3.00058398962352,2,,0,,Europe/Madrid,1,0,
121,48044005,OLLARETXE 8 (GETXO I) (121),,43.3535585431901,-3.00485590645191,2,,0,,Europe/Madrid,1,0,
122,48044006,OLLARETXE 10 (EL REDENTOR) (122),,43.3569711633268,-3.00675659404824,2,,0,,Europe/Madrid,0,0,
123,48044029,MAIDAGAN (PARKEA) (123),,43.3599144574601,-3.01052683610655,2,,0,,Europe/Madrid,0,0,
126,48020019,GRAN VÍA 6 (126),,43.2616704092672,-2.92847604352556,1,,0,,Europe/Madrid,1,0,
127,48020071,SAN JOSÉ PLAZA (ELCANO 5) (127),,43.2639983899594,-2.93560331451549,1,,0,,Europe/Madrid,1,0,
128,48020054,DEUSTUKO UNIBERTSITATEA (PIO X PLAZA) (128),,43.270908187357,-2.9415971873354,1,,0,,Europe/Madrid,1,0,
129,48020037,SAN PEDRO PLAZA (129),,43.2719904972641,-2.94513290408517,1,,0,,Europe/Madrid,1,0,
130,48020038,BIDARTE (LEHENDAKARI AGUIRRE 42) (130),,43.2721731694202,-2.95080265046693,1,,0,,Europe/Madrid,0,0,
131,48020039,SARRIKO (LEHENDAKARI AGUIRRE 88) (131),,43.2748231103656,-2.95866614808138,1,,0,,Europe/Madrid,0,0,
132,48020040,SAN IGNACIO (LEHENDAKARI AGUIRRE 140) (132),,43.2768682129197,-2.96009005307663,1,,0,,Europe/Madrid,0,0,
133,48020041,SAN IGNACIO (LEHENDAKARI AGUIRRE 154) (133),,43.2788946489983,-2.96122246583724,1,,0,,Europe/Madrid,0,0,
134,48020042,PLAZA LEVANTE (LEHENDAKARI AGUIRRE 172) (134),,43.2817676629494,-2.96282291069897,1,,0,,Europe/Madrid,1,0,
137,48020045,LUTXANA (RIBERA DE ELORRIETA) (137),,43.2884324402027,-2.96915910808027,1,,0,,Europe/Madrid,0,0,
138,48902001,LUTXANA (138),,43.2907381033155,-2.9709823333541,2,,0,,Europe/Madrid,1,0,
139,48902032,IBAÑEZ BETOLATZA (139),,43.2954385325249,-2.96864543877823,2,,0,,Europe/Madrid,0,0,
140,48902093,PLAIABARRI (140),,43.2965995889204,-2.96673385647266,2,,0,,Europe/Madrid,0,0,
141,48902033,SARATSETA (141),,43.2989758583683,-2.96389697726139,2,,0,,Europe/Madrid,0,0,
145,48902037,ERANDIONDO (145),,43.3031598811266,-2.95507880678108,2,,0,,Europe/Madrid,0,0,
146,48902026,ASUA (LA AVANZADA 12) (146),,43.3039132358219,-2.94812434490884,2,,0,,Europe/Madrid,1,0,
147,48902027,ERANDIOGOIKOA (147),,43.3081076682253,-2.95445974958245,2,,0,,Europe/Madrid,0,0,
150,48902030,ERANDIOGOIKOA (150),,43.3072472054774,-2.95316447778739,2,,0,,Europe/Madrid,1,0,
151,48902039,ASUA (MAKRO) (151),,43.3037515811648,-2.94907755966533,2,,0,,Europe/Madrid,1,0,
153,48902041,ERANDIONDO (153),,43.3021522883163,-2.95749608493484,2,,0,,Europe/Madrid,0,0,
154,48902087,SAKONI (154),,43.300315767709,-2.95864395156481,2,,0,,Europe/Madrid,0,0,
156,48902043,SARATSETA (156),,43.2988229075717,-2.96430391136414,2,,0,,Europe/Madrid,0,0,
157,48902095,PLAIABARRI (157),,43.2966626499039,-2.96683244735891,2,,0,,Europe/Madrid,0,0,
158,48902044,IBAÑEZ BETOLATZA (158),,43.2954836128923,-2.96885499025043,2,,0,,Europe/Madrid,0,0,
159,48902014,LUTXANA (159),,43.2905309968176,-2.97098243181323,2,,0,,Europe/Madrid,1,0,
160,48020046,LUTXANA (RIBERA DE ELORRIETA) (160),,43.2866941372875,-2.96768084895481,1,,0,,Europe/Madrid,1,0,
161,48020047,RIBERA DE ELORRIETA (161),,43.284190714561,-2.96721379994837,1,,0,,Europe/Madrid,1,0,
162,48020048,PLAZA LEVANTE (LEHENDAKARI AGUIRRE 179) (162),,43.2818037772789,-2.96311869248041,1,,0,,Europe/Madrid,1,0,
163,48020050,SAN IGNACIO (LEHENDAKARI AGUIRRE 147) (163),,43.2776698781928,-2.960816664186,1,,0,,Europe/Madrid,1,0,
164,48020114,SAN IGNACIO (LEHENDAKARI AGUIRRE 131) (164),,43.2757695288092,-2.95975802473157,1,,0,,Europe/Madrid,0,0,
165,48020051,SARRIKO (LEHENDAKARI AGUIRRE  83) (165),,43.2737607073333,-2.95759040642544,1,,0,,Europe/Madrid,0,0,
167,48020053,SAN PEDRO PLAZA (167),,43.2715752256153,-2.94406548114299,1,,0,,Europe/Madrid,0,0,
168,48020055,MUSEO PLAZA (168),,43.2660614706448,-2.93742479290985,1,,0,,Europe/Madrid,1,0,
169,48020025,GRAN VÍA 45 (SOTA) (169),,43.2632696987902,-2.93683622429692,1,,0,,Europe/Madrid,1,0,
171,48020017,ABANDO (GELTOKIA/ESTACIÓN) (171),,43.2605451701038,-2.92816527312086,1,,0,,Europe/Madrid,1,0,
172,48020148,ENRIQUE IBARRETA (SANTUTXU) (172),,43.254688388556,-2.91013613622519,1,,0,,Europe/Madrid,1,0,
173,48020159,JESUS GALINDEZ (ADORATRICES) (173),,43.260478558036,-2.90476669431675,1,,0,,Europe/Madrid,0,0,
174,48020160,JESUS GALINDEZ (COLEGIO ALEMÁN) (174),,43.2592078346912,-2.9089910667923,1,,0,,Europe/Madrid,0,0,
175,48020149,ZABALBIDE (UR DEPOSITUA/DEPÓSITO AGUAS) (175),,43.2580387825906,-2.91096899396635,1,,0,,Europe/Madrid,0,0,
177,48020155,MAURICE RAVEL (PANERA) (177),,43.2654898588482,-2.91667535798348,1,,0,,Europe/Madrid,1,0,
178,48020156,MAURICE RAVEL (TELÉFONICA) (178),,43.26790443915,-2.9185204172273,1,,0,,Europe/Madrid,1,0,
181,48020157,MAURICE RAVEL (BEGIRATOKIA/MIRADOR) (181),,43.2695820126709,-2.92241202639439,1,,0,,Europe/Madrid,1,0,
182,48020158,MAURICE RAVEL (TELEFÓNICA) (182),,43.2676252947359,-2.91852078955815,1,,0,,Europe/Madrid,0,0,
183,48020107,ZUMALAKARREGI (ETXEBARRIA PARKEA) (183),,43.2607161336273,-2.91485849791825,1,,0,,Europe/Madrid,1,0,
184,48020209,AYALA (184),,43.2608515049824,-2.92931482532414,1,,0,,Europe/Madrid,0,0,
186,48020173,BIZKAIA PLAZA (186),,43.2603179030842,-2.93721308947814,1,,0,,Europe/Madrid,0,0,
198,48902002,RIBERA DE ERANDIO (198),,43.296601456193,-2.97393361567561,2,,0,,Europe/Madrid,0,0,
199,48902003,JOSE LUIS GOIOAGA (199),,43.2994923596514,-2.97584937491227,2,,0,,Europe/Madrid,1,0,
201,48902071,GERNIKA ETORBIDEA (TELEFÓNICA) (201),,43.3029492014469,-2.97178533677909,2,,0,,Europe/Madrid,1,0,
203,48902057,ALTZAGA-ERANDIOGOIKOA (BASABE) (203),,43.3014131888396,-2.96898117281858,2,,0,,Europe/Madrid,0,0,
204,48902058,ALTZAGA-ERANDIOGOIKOA (ARRIAGA) (204),,43.3032448468299,-2.96622460108366,2,,0,,Europe/Madrid,1,0,
205,48902059,ALTZAGA-ERANDIGOIKOA (ARTETXE) (205),,43.3042206793523,-2.96275325454782,2,,0,,Europe/Madrid,1,0,
206,48902060,ALTZAGA-ERANDIOGOIKOA (BEITITBEKOA) (206),,43.3020001513171,-2.96010998897871,2,,0,,Europe/Madrid,1,0,
207,48902061,ALTZAGA-ERANDIOGOIKOA (URIBARRI) (207),,43.303836931731,-2.95965259258325,2,,0,,Europe/Madrid,0,0,
208,48902062,ALTZAGA-ERANDIOGOIKOA (ELEXALDE) (208),,43.3074831794813,-2.95793613983225,2,,0,,Europe/Madrid,1,0,
211,48902046,MAGDALENABIDEA (ZABALBIDEA) (211),,43.3177331064252,-2.9657475756382,2,,0,,Europe/Madrid,0,0,
212,48902047,MAGDALENABIDEA (IBARRA) (212),,43.3215048466867,-2.96227971005979,2,,0,,Europe/Madrid,1,0,
213,48902024,MAGDALENABIDEA (IKATZA) (213),,43.3243668789,-2.95818313151394,2,,0,,Europe/Madrid,0,0,
214,48902048,MAGDALENABIDEA (MAGDALENA) (214),,43.3258159240445,-2.95633202982257,2,,0,,Europe/Madrid,0,0,
215,48902092,MAGDALENABIDEA (ERREKURTZE) (215),,43.3292108948479,-2.9569832155618,2,,0,,Europe/Madrid,0,0,
220,48902056,MAGDALENABIDEA (ERREKURTZE) (220),,43.3291389466651,-2.95721885956449,2,,0,,Europe/Madrid,0,0,
221,48902049,MAGDALENABIDEA (MAGDALENA) (221),,43.3258429847869,-2.95645535100955,2,,0,,Europe/Madrid,0,0,
222,48902028,MAGDALENABIDEA (IKATZA) (222),,43.3243849420659,-2.95833112426965,2,,0,,Europe/Madrid,0,0,
223,48902050,MAGDALENABIDEA (IBARRA) (223),,43.3215679193575,-2.96240300296266,2,,0,,Europe/Madrid,1,0,
224,48902051,MAGDALENABIDEA (ZABALBIDEA) (224),,43.3176071209312,-2.96601155957622,2,,0,,Europe/Madrid,0,0,
227,48902065,ALTZAGA-ERANDIOGOIKOA (ELEXALDE) (227),,43.3077082673075,-2.95786200228327,2,,0,,Europe/Madrid,1,0,
228,48902066,ALTZAGA-ERANDIOGOIKOA (URIBARRI) (228),,43.303791960782,-2.95980057750264,2,,0,,Europe/Madrid,0,0,
229,48902105,ALTZAGA-ERANDIOGOIKOA (BEITIBEKOA) (229),,43.3015675729229,-2.9590992815949,2,,0,,Europe/Madrid,1,0,
230,48902067,ALTZAGA-ERANDIOGOIKOA  (ARTETXE) (230),,43.3043507175298,-2.96278893131983,2,,0,,Europe/Madrid,0,0,
231,48902068,ALTZAGA-ERANDIOGOIKOA (ARRIAGA) (231),,43.3034656515738,-2.96688040996734,2,,0,,Europe/Madrid,1,0,
232,48902069,ALTZAGA-ERANDIOGOIKOA  (BASABE) (232),,43.3014582804973,-2.96923512990526,2,,0,,Europe/Madrid,1,0,
234,48902072,OBIETA 33 (234),,43.304137711964,-2.97139023775526,2,,0,,Europe/Madrid,1,0,
236,48902012,JOSE LUIS GOIOAGA (236),,43.2994113435461,-2.97597022836653,2,,0,,Europe/Madrid,1,0,
237,48902110,LEGAZPI (237),,43.3032102987076,-2.97430536190823,2,,0,,Europe/Madrid,0,0,
241,48020049,SAN IGNACIO (LEHENDAKARI AGUIRRE 161) (241),,43.2793720819883,-2.96177677262655,1,,0,,Europe/Madrid,0,0,
244,48020052,BIDARTE (LEHENDAKARI AGUIRRE 33) (244),,43.2719562198273,-2.9501158085093,1,,0,,Europe/Madrid,1,0,
248,48020174,ELCANO 16 (248),,43.261106954596,-2.9339640984177,1,,0,,Europe/Madrid,1,0,
251,48036038,ZABALGANE (251),,43.2302341722653,-2.83834069711299,2,,0,,Europe/Madrid,1,0,
252,48036027,UDALETXEA/AYUNTAMIENTO (252),,43.2306981761316,-2.84181225888077,2,,0,,Europe/Madrid,1,0,
253,48036028,JUAN BAUTISTA URIARTE 27 (253),,43.2302513113924,-2.84493249735931,2,,0,,Europe/Madrid,1,0,
255,48036014,IBAIZABAL (255),,43.231745680851,-2.85071321683795,2,,0,,Europe/Madrid,1,0,
256,48036015,BENGOETXE (256),,43.232459033041,-2.8594552723034,2,,0,,Europe/Madrid,1,0,
257,48036036,OLABARRIETA (POBLADO FIRESTONE) (257),,43.2373349206584,-2.87084873425248,2,,0,,Europe/Madrid,1,0,
258,48036016,APERRIBAI (258),,43.2404538699003,-2.87382281635625,2,,0,,Europe/Madrid,1,0,
259,48029002,KUKULLAGA (259),,43.2465464851612,-2.88776646358385,2,,0,,Europe/Madrid,1,0,
260,48020101,BOLUETA (GASOLINDEGIA/GASOLINERA) (260),,43.2469007501277,-2.91184760827576,1,,0,,Europe/Madrid,1,0,
261,48036059,BENGOETXE - LA TROKA (261),,43.2331611219963,-2.85988826758261,2,,0,,Europe/Madrid,1,0,
262,48036058,BENGOETXE - LA TROKA (262),,43.2329896099362,-2.85954383171432,2,,0,,Europe/Madrid,0,0,
263,48020096,BOLUETA (GASOLINDEGIA/GASOLINERA) (263),,43.2467657083422,-2.91188488045719,1,,0,,Europe/Madrid,1,0,
264,48029001,KUKULLAGA (264),,43.2466825299585,-2.88876397769011,2,,0,,Europe/Madrid,0,0,
265,48036001,APERRIBAI (265),,43.2400036626031,-2.87384837882886,2,,0,,Europe/Madrid,1,0,
266,48036039,OLABARRIETA (POBLADO FIRESTONE) (266),,43.2372632719161,-2.87119373845806,2,,0,,Europe/Madrid,1,0,
267,48036002,BENGOETXE (267),,43.232143292787,-2.85898802239733,2,,0,,Europe/Madrid,0,0,
268,48036003,IBAIZABAL (268),,43.23090662397,-2.85016466583128,2,,0,,Europe/Madrid,1,0,
269,48036022,JUAN BAUTISTA URIARTE 24 (269),,43.2300454994638,-2.84522512428221,2,,0,,Europe/Madrid,1,0,
270,48036024,UDALETXEA/AYUNTAMIENTO (270),,43.2307862257723,-2.84030961712574,2,,0,,Europe/Madrid,0,0,
271,48065011,BARRENA KALEA (271),,43.1819964038919,-2.90381133768107,3,,0,,Europe/Madrid,1,0,
272,48011013,AIXARTE BEKOA (IKASTOLA) (272),,43.2042922902371,-2.89262067140778,2,,0,,Europe/Madrid,1,0,
273,48011014,SEVERO OCHOA 13 (CAJA LABORAL) (273),,43.2070240111043,-2.88668241675584,2,,0,,Europe/Madrid,1,0,
274,48011015,SEVERO OCHOA  (KIROLDEGIA/POLIDEPORTIVO) (274),,43.2099314705723,-2.88659406048189,2,,0,,Europe/Madrid,1,0,
275,48011016,LEPANTO  (LANBARKETA) (275),,43.2130504696059,-2.88909646287699,2,,0,,Europe/Madrid,0,0,
276,48015008,GERNIKA 53 (SAN MIGUEL) (276),,43.2185052163476,-2.88691959515032,2,,0,,Europe/Madrid,1,0,
277,48015009,GERNIKA 5 (ABARO) (277),,43.2240348145633,-2.88853808348335,2,,0,,Europe/Madrid,1,0,
278,48015001,ARTUNDUAGA (KIROLDEGIA/POLIDEPORTIVO) (278),,43.2331955157002,-2.88164585017431,2,,0,,Europe/Madrid,1,0,
279,48015021,AGIRRE LEHENDAKARIA 73 (ARIZ DORRETXEA) (279),,43.236135154107,-2.88134445527078,2,,0,,Europe/Madrid,0,0,
280,48015033,AGIRRE LEHENDAKARIA (SAN JOSÉ IKASTETXEA) (280),,43.2372978476801,-2.88685984874654,2,,0,,Europe/Madrid,1,0,
281,48015011,KAREAGA GOIKOA 111 (UDALETXEA/AYUNTAMIENTO) (281),,43.2356541928511,-2.8911980691472,2,,0,,Europe/Madrid,1,0,
282,48015012,KAREAGA GOIKOA 79 (BURRITOS) (282),,43.2379085221478,-2.8945625676784,2,,0,,Europe/Madrid,1,0,
283,48015013,KAREAGA GOIKOA 11 (EL CALERO) (283),,43.2388472939099,-2.89787162264113,2,,0,,Europe/Madrid,1,0,
284,48029014,ZUBIALDEA (EL BOQUETE) (284),,43.2443906792495,-2.90421825027865,2,,0,,Europe/Madrid,0,0,
285,48020140,METRO BOLUETA (285),,43.2471209655369,-2.90646819601949,1,,0,,Europe/Madrid,0,0,
290,48020100,METRO BOLUETA (290),,43.2466345510418,-2.90627185122154,1,,0,,Europe/Madrid,0,0,
291,48015024,ZUBIALDEA (EL BOQUETE) (291),,43.2439587193687,-2.90378399523639,2,,0,,Europe/Madrid,0,0,
292,48015003,KAREAGA GOIKOA 12 (EL CALERO) (292),,43.2384961988095,-2.89716647795174,2,,0,,Europe/Madrid,1,0,
293,48015004,KAREAGA GOIKOA 26 (BURRITOS) (293),,43.2376831944278,-2.89433510538551,2,,0,,Europe/Madrid,0,0,
294,48015005,KAREAGA GOIKOA 52 (UDALETXEA/AYUNTAMIENTO) (294),,43.2353526956666,-2.89136733186299,2,,0,,Europe/Madrid,1,0,
295,48015014,NAGUSIA (BEGIRATOKIA/MIRADOR) (295),,43.2354621725624,-2.88816872094307,2,,0,,Europe/Madrid,0,0,
296,48015015,AGIRRE LEHENDAKARIA 76 (ARIZ DORRETXEA) (296),,43.2360453419416,-2.88157124263191,2,,0,,Europe/Madrid,1,0,
297,48015002,ARTUNDUAGA (KIROLDEGIA/POLIDEPORTIVO) (297),,43.2334916090846,-2.88140254035717,2,,0,,Europe/Madrid,1,0,
298,48015006,GERNIKA 8 (ABARO) (298),,43.2235856075633,-2.88867090173754,2,,0,,Europe/Madrid,0,0,
299,48015007,GERNIKA 46 (SAN MIGUEL) (299),,43.2193702285936,-2.88748437497311,2,,0,,Europe/Madrid,1,0,
300,48011001,LEPANTO (LANBARKETA) (300),,43.212735494575,-2.88929401342571,2,,0,,Europe/Madrid,1,0,
301,48011002,URGOITI (GELTOKIA/ESTACIÓN) (301),,43.2101322156615,-2.8882709003036,2,,0,,Europe/Madrid,0,0,
302,48011003,URGOITI (ANBULATORIOA) (302),,43.2077816585908,-2.88794896917033,2,,0,,Europe/Madrid,1,0,
303,48011004,AIXARTE BEKOA (IKASTOLA) (303),,43.2043823955078,-2.89268206116345,2,,0,,Europe/Madrid,1,0,
305,48020002,ZABALBURU (AUTONOMÍA 4) (305),,43.2573977902076,-2.93514222498991,1,,0,,Europe/Madrid,1,0,
306,48020003,AUTONOMÍA 20 (306),,43.2575253937742,-2.93791414782263,1,,0,,Europe/Madrid,1,0,
307,48020004,LA CASILLA (AUTONOMIA 50) (307),,43.2577891164216,-2.9428789656898,1,,0,,Europe/Madrid,1,0,
308,48020005,AUTONOMÍA 78 (LANTIK) (308),,43.2580431192847,-2.94813126881199,1,,0,,Europe/Madrid,1,0,
309,48020006,BASURTO OSPITALEA/HOSPITAL BASURTO (309),,43.2601703416076,-2.95303313849602,1,,0,,Europe/Madrid,1,0,
310,48020007,OLABEAGA (AVDA. MONTEVIDEO) (310),,43.264990904232,-2.96119876267004,1,,0,,Europe/Madrid,1,0,
311,48020008,ZORROTZA (FRAY JUAN 8) (311),,43.2766730082295,-2.97160522364472,1,,0,,Europe/Madrid,1,0,
312,48013001,BURTZEÑA (PILOTALEKUA/FRONTÓN) (312),,43.2803310552714,-2.97815603438521,2,,0,,Europe/Madrid,1,0,
313,48013121,ZUMALAKARREGI (KOTXETEGIA/COCHERAS) (313),,43.2837338018665,-2.97669239082472,2,,0,,Europe/Madrid,1,0,
314,48013002,LUTXANA (GELTOKIA/ESTACIÓN) (314),,43.288533661218,-2.97552730487965,2,,0,,Europe/Madrid,0,0,
315,48013115,OBISPO OLAETXEA (315),,43.2903345160405,-2.97519375710934,2,,0,,Europe/Madrid,0,0,
316,48013062,ERREKETA (316),,43.3018707908781,-2.98193289870009,2,,0,,Europe/Madrid,0,0,
318,48084002,URBINAGA (LA NAVAL) (318),,43.3065181900118,-2.98934181885212,2,,0,,Europe/Madrid,1,0,
320,48084004,LOS BAÑOS (320),,43.3108490901795,-2.9999506759005,2,,0,,Europe/Madrid,0,0,
321,48084005,IBERIA (321),,43.3111921025324,-3.00379304458193,2,,0,,Europe/Madrid,1,0,
322,48084006,CHAVARRI 34 (ARBOLEDA) (322),,43.3124165380383,-3.00760350533479,2,,0,,Europe/Madrid,0,0,
323,48084028,CHAVARRI (GASOLINDEGIA/GASOLINERA) (323),,43.3135959627318,-3.01090851587368,2,,0,,Europe/Madrid,0,0,
324,48078002,BEGIRATOKIA / MIRADOR (324),,43.3181698233015,-3.01506526496157,2,,0,,Europe/Madrid,0,0,
325,48078003,GENERAL CASTAÑOS 2 (EL CRISTO) (325),,43.3195562044937,-3.01735950559531,2,,0,,Europe/Madrid,1,0,
326,48078004,ABARO 10 (326),,43.3219508787531,-3.02064071384148,2,,0,,Europe/Madrid,1,0,
327,48078048,SAN JUAN DE DIOS (OSPITALEA/HOSPITAL) (327),,43.3248037815218,-3.02353298012941,2,,0,,Europe/Madrid,1,0,
328,48082002,MURRIETA 13 (BATZOKIA) (328),,43.3271890121265,-3.02790025357276,2,,0,,Europe/Madrid,0,0,
330,48082052,LAS VIÑAS (330),,43.3282331753099,-3.03361877790969,2,,0,,Europe/Madrid,1,0,
331,48082007,GERNIKA PARKEA (331),,43.3289339828726,-3.03488248261171,2,,0,,Europe/Madrid,1,0,
332,48082004,MURRIETA 42 (BATZOKIA) (332),,43.3274228891726,-3.02887477638773,2,,0,,Europe/Madrid,1,0,
333,48082005,SAN JUAN DE DIOS (OSPITALEA/HOSPITAL) (333),,43.3252818931702,-3.02453936781537,2,,0,,Europe/Madrid,1,0,
334,48078005,ABARO 11 (334),,43.3220319675043,-3.020875073732,2,,0,,Europe/Madrid,1,0,
335,48078006,GENERAL CASTAÑOS 19 (335),,43.3201672021412,-3.01937500022008,2,,0,,Europe/Madrid,1,0,
336,48078007,BEGIRATOKIA / MIRADOR (336),,43.3181697302543,-3.01575588522469,2,,0,,Europe/Madrid,1,0,
337,48078008,AZETA (337),,43.3147394153828,-3.01220343728082,2,,0,,Europe/Madrid,1,0,
338,48084007,CHAVARRI (GASOLINDEGIA/GASOLINERA) (338),,43.3134328878653,-3.0109257508722,2,,0,,Europe/Madrid,1,0,
339,48084008,CHAVARRI 111 (ARBOLEDA) (339),,43.3122904736789,-3.00760348961897,2,,0,,Europe/Madrid,0,0,
340,48084009,IBERIA (340),,43.3113541311759,-3.00517414087931,2,,0,,Europe/Madrid,1,0,
341,48084010,LOS BAÑOS (341),,43.3106059644655,-2.99940811316531,2,,0,,Europe/Madrid,1,0,
342,48084011,RIVAS (342),,43.3083547175655,-2.99526508007852,2,,0,,Europe/Madrid,1,0,
343,48084012,URBINAGA (LA NAVAL) (343),,43.3063471127769,-2.98945281977482,2,,0,,Europe/Madrid,1,0,
345,48013061,ERREKETA (345),,43.3012675146684,-2.98214267183657,2,,0,,Europe/Madrid,1,0,
346,48013020,OBISPO OLAETXEA 18 (346),,43.2902535486891,-2.97553894218695,2,,0,,Europe/Madrid,1,0,
347,48013005,LUTXANA (GELTOKIA/ESTACIÓN) (347),,43.2881464908712,-2.97566305091555,2,,0,,Europe/Madrid,0,0,
348,48013122,MUNOA  (KOTXETEGIA/COCHERAS) (348),,43.2850664609693,-2.9765562980733,2,,0,,Europe/Madrid,1,0,
349,48013006,LOS ANGELES AUZOA (349),,43.2821323674602,-2.98026287992169,2,,0,,Europe/Madrid,0,0,
350,48013013,BURTZEÑA (BATZOKIA) (350),,43.2793399859109,-2.97902342875286,2,,0,,Europe/Madrid,1,0,
351,48020009,ZORROTZA (FRAY JUAN 13) (351),,43.276547666559,-2.9719830154772,1,,0,,Europe/Madrid,1,0,
352,48020010,OLABEAGA (AVDA. MONTEVIDEO) (352),,43.2647387859998,-2.96123588793565,1,,0,,Europe/Madrid,1,0,
353,48020011,BASURTO OSPITALEA/HOSPITAL BASURTO (353),,43.2600083583312,-2.95327967819966,1,,0,,Europe/Madrid,0,0,
354,48020012,AUTONOMÍA 61 (LANTIK) (354),,43.25786304803,-2.94818070296599,1,,0,,Europe/Madrid,1,0,
356,48020014,LA CASILLA (AUTONOMÍA 45) (356),,43.2576269866383,-2.94278794717174,1,,0,,Europe/Madrid,1,0,
357,48020015,AUTONOMÍA 13 (357),,43.2573721668115,-2.93764325848109,1,,0,,Europe/Madrid,1,0,
358,48020016,ZABALBURU (QUINTA PARROQUIA) (358),,43.2579450602647,-2.93274324286592,1,,0,,Europe/Madrid,1,0,
361,48020206,SANTIAGO - SANTA ANA (361),,43.2629000943231,-2.9564070880931,1,,0,,Europe/Madrid,1,0,
362,48020207,SANTIAGO - SANTA ANA (362),,43.2625038840137,-2.95639504952312,1,,0,,Europe/Madrid,1,0,
372,48013133,AV ALTOS HORNOS (372),,43.296070619019,-2.97912863117115,2,,0,,Europe/Madrid,1,0,
373,48013134,AV ALTOS HORNOS (373),,43.2963857309818,-2.97885730515783,2,,0,,Europe/Madrid,1,0,
374,48084029,RIVAS (374),,43.3079322261402,-2.9935215893319,2,,0,,Europe/Madrid,1,0,
375,48084014,GRAN VÍA 55 (ZAHAR-EGOITZA/ASILO) (375),,43.3077522986678,-2.99792356083221,2,,0,,Europe/Madrid,0,0,
376,48084015,KUETO (GRAN VÍA) (376),,43.3082917636801,-3.0021208473595,2,,0,,Europe/Madrid,1,0,
377,48084016,EL KASKO PLAZA (GRAN VIA) (377),,43.309508108033,-3.00671532850916,2,,0,,Europe/Madrid,1,0,
378,48084017,MARIANA PINEDA (378),,43.3091556126963,-3.01183745521968,2,,0,,Europe/Madrid,1,0,
379,48084018,HILERRIA/CEMENTERIO (379),,43.312136030222,-3.01281220516877,2,,0,,Europe/Madrid,1,0,
381,48084040,AIZPURU (381),,43.3098952735311,-3.00724559691126,2,,0,,Europe/Madrid,1,0,
382,48084019,HILERRIA/CEMENTERIO (382),,43.312236050989,-3.01299226323641,2,,0,,Europe/Madrid,1,0,
383,48084021,EL KASKO PLAZA (LAS LLANAS) (383),,43.3089758776912,-3.00764500063822,2,,0,,Europe/Madrid,1,0,
384,48084022,VICENTE BLASCO IBÁÑEZ (SAN PEDRO PLAZA) (384),,43.3077424115123,-3.00456224683798,2,,0,,Europe/Madrid,1,0,
385,48084023,KUETO (VICENTE BLASCO IBÁÑEZ) (385),,43.3077785084399,-3.00168926536944,2,,0,,Europe/Madrid,1,0,
386,48084024,GRAN VÍA 64 (ZAHAR-EGOITZA/ASILO) (386),,43.3076353330657,-2.99817017231794,2,,0,,Europe/Madrid,1,0,
387,48084025,RIVAS (GRAN VIA) (387),,43.3078511916198,-2.99364490212634,2,,0,,Europe/Madrid,0,0,
389,48013087,SAN ELOY (LA BONDAD) (389),,43.2974319770758,-2.99252904212369,2,,0,,Europe/Madrid,1,0,
390,48013026,HERRIKO PLAZA (ARRANDI 1) (390),,43.2971791173741,-2.98507047443114,2,,0,,Europe/Madrid,1,0,
391,48013050,LARREA 18 (391),,43.2970531483862,-2.98087422001994,2,,0,,Europe/Madrid,0,0,
392,48013051,BUEN PASTOR (392),,43.2902170463216,-2.97623382168378,2,,0,,Europe/Madrid,1,0,
393,48013021,LUTXANA (ELIZA/IGLESIA) (393),,43.2906956522151,-2.97954502460604,2,,0,,Europe/Madrid,1,0,
394,48013022,ANDIKOLLANO (ANBULATORIOA) (394),,43.2882549320563,-2.98102957844521,2,,0,,Europe/Madrid,1,0,
395,48013023,BALEJO (BOLATOKIA/BOLERA) (395),,43.2854826845573,-2.98404584808698,2,,0,,Europe/Madrid,1,0,
396,48013059,CRUCES OSPITALEA (BALEJO) (396),,43.2824479693985,-2.9829989916782,2,,0,,Europe/Madrid,1,0,
397,48013058,LA PAZ 21 (397),,43.2811970153127,-2.98769530150171,2,,0,,Europe/Madrid,1,0,
398,48013120,LA PAZ 43 (398),,43.2821427574453,-2.99034503443402,2,,0,,Europe/Madrid,1,0,
399,48013129,ARGENTA (399),,43.2861754107115,-2.98002737806666,2,,0,,Europe/Madrid,1,0,
400,48013047,LA PAZ 27 (400),,43.2813231156705,-2.98802805271605,2,,0,,Europe/Madrid,1,0,
401,48013048,LA PAZ 14 (ANBULATORIOA) (401),,43.2803323370308,-2.98643834000568,2,,0,,Europe/Madrid,1,0,
402,48013052,CRUCES OSPITALEA (HORACIO ETXEBARRIETA) (402),,43.2818985158644,-2.98189000204994,2,,0,,Europe/Madrid,1,0,
403,48013078,CIRILO SAGASTAGOITIA (403),,43.2861398073241,-2.98256655243816,2,,0,,Europe/Madrid,1,0,
404,48013017,ANDIKOLLANO (ANBULATORIOA) (404),,43.2882556063648,-2.98075383532864,2,,0,,Europe/Madrid,0,0,
405,48013018,LUTXANA (ELIZA/IGLESIA) (405),,43.2906145728716,-2.97933549386142,2,,0,,Europe/Madrid,1,0,
406,48013019,BUEN PASTOR 76 (406),,43.2900460067443,-2.97646809788618,2,,0,,Europe/Madrid,1,0,
407,48013049,LARREA 17 (407),,43.2976475105293,-2.98121922772737,2,,0,,Europe/Madrid,1,0,
408,48013024,MURRIETA (GELTOKIA/ESTACIÓN) (408),,43.3002414431088,-2.98534108384167,2,,0,,Europe/Madrid,1,0,
409,48013025,HERRIKO PLAZA 3 (409),,43.2973961560728,-2.98675471450745,2,,0,,Europe/Madrid,1,0,
410,48013028,LOS HERMANOS (JUNTAS GENERALES 30) (410),,43.2982970959009,-2.99068730665402,2,,0,,Europe/Madrid,1,0,
411,48013029,BEURKO (AV. MIRANDA 2) (411),,43.2985989551779,-2.99368063230483,2,,0,,Europe/Madrid,1,0,
418,48013075,ANAITASUNA 10 (418),,43.2833493468311,-2.98996275407885,2,,0,,Europe/Madrid,1,0,
419,48013009,RETUERTO 28 (419),,43.2836379967103,-2.99741965080268,2,,0,,Europe/Madrid,1,0,
420,48013010,KAREAGA (420),,43.2865914738816,-3.00411248796927,2,,0,,Europe/Madrid,0,0,
421,48013119,MAX CENTER (N-634) (421),,43.2884733045795,-3.00831595256228,2,,0,,Europe/Madrid,0,0,
424,48084035,CARREFOUR (424),,43.2998103334881,-3.00130216720634,2,,0,,Europe/Madrid,1,0,
425,48084036,VEGA NUEVA (ARAZTEGIA/DEPURADORA) (425),,43.306167482568,-2.99764014627071,2,,0,,Europe/Madrid,0,0,
433,48078010,ERREPELEGA / REPELEGA (433),,43.3146036578093,-3.01750620053938,2,,0,,Europe/Madrid,1,0,
434,48078011,RAMÓN Y CAJAL (GASOLINDEGIA/GASOLINERA) (434),,43.3156375247582,-3.0214453358855,2,,0,,Europe/Madrid,1,0,
435,48078012,CARLOS VII (LOS ANGELES KAFETEGIA) (435),,43.3170790906354,-3.02273567647254,2,,0,,Europe/Madrid,1,0,
436,48078013,CARLOS VII 3 (436),,43.3200149856659,-3.02062784895887,2,,0,,Europe/Madrid,1,0,
438,48082047,SAN JUAN DE DIOS (ZOMILLO) (438),,43.3241289577457,-3.02611761868309,2,,0,,Europe/Madrid,1,0,
442,48082008,ANBULATORIOA (442),,43.3248098886388,-3.03488012281846,2,,0,,Europe/Madrid,1,0,
443,48082010,CABIECES (443),,43.3217756908554,-3.03748797603254,2,,0,,Europe/Madrid,1,0,
445,48082016,ANTONIO ALZAGA 7 (445),,43.3238199165876,-3.03309117749221,2,,0,,Europe/Madrid,1,0,
446,48078026,GENERAL CASTAÑOS 113 (446),,43.3246940937151,-3.0304522134877,2,,0,,Europe/Madrid,1,0,
447,48078035,GENERAL CASTAÑOS 83 (447),,43.3233454235915,-3.0267055934552,2,,0,,Europe/Madrid,1,0,
449,48078014,CARLOS VII 4 (449),,43.3200869865846,-3.02082519960253,2,,0,,Europe/Madrid,1,0,
450,48078015,CARLOS VII 18 (450),,43.3180685746664,-3.02243278959486,2,,0,,Europe/Madrid,1,0,
451,48078016,MIGUEL DE UNAMUNO ( BEILATOKIA / TANATORIO) (451),,43.3145837667038,-3.02259182087049,2,,0,,Europe/Madrid,0,0,
452,48078017,ERREPELEGA / REPELEGA (452),,43.3139014444472,-3.01653179925692,2,,0,,Europe/Madrid,1,0,
460,48084037,VEGA NUEVA (ARAZTEGIA/DEPURADORA) (460),,43.3063557418789,-2.99657222759147,2,,0,,Europe/Madrid,0,0,
461,48084034,CARREFOUR (461),,43.300431652578,-3.00125286478833,2,,0,,Europe/Madrid,1,0,
463,48013118,MAX CENTER (N-634) (463),,43.2876628871264,-3.00697227107718,2,,0,,Europe/Madrid,1,0,
464,48013011,KAREAGA (464),,43.2863843658714,-3.00414945226338,2,,0,,Europe/Madrid,1,0,
465,48013012,RETUERTO 17 (465),,43.2833407333003,-2.9966431589099,2,,0,,Europe/Madrid,1,0,
466,48013045,SAN IGNACIO (VICENTE ALEXANDRE) (466),,43.28377260517,-2.99043105557407,2,,0,,Europe/Madrid,1,0,
467,48013046,ANAITASUNA 12 (CORREOS) (467),,43.2827640264367,-2.98975331933544,2,,0,,Europe/Madrid,1,0,
468,48082049,ANTONIO ALZAGA 36 (468),,43.3249100944566,-3.03085933904026,2,,0,,Europe/Madrid,1,0,
469,48082050,ANTONIO ALZAGA 46 (469),,43.3235136496894,-3.0334733524237,2,,0,,Europe/Madrid,1,0,
472,48013042,RETUERTO (AV. EUSKADI) (472),,43.2849786764147,-2.99433013280906,2,,0,,Europe/Madrid,0,0,
476,48013035,SAN VICENTE (GERNIKAKO ARBOLA) (476),,43.2943263458287,-2.99544652263702,2,,0,,Europe/Madrid,1,0,
478,48013130,SAN BARTOLOMÉ 1 (478),,43.2949478383717,-3.00128985891727,2,,0,,Europe/Madrid,1,0,
479,48013132,MEGAPARK (479),,43.2934070778135,-3.00417902259417,2,,0,,Europe/Madrid,1,0,
504,48013030,SAN ELOY (AV. MIRANDA) (504),,43.2963875626841,-2.99471124409833,2,,0,,Europe/Madrid,0,0,
505,48013031,SAN VICENTE (ANTEIGLESIA PLAZA) (505),,43.2952178503285,-2.99682717711655,2,,0,,Europe/Madrid,1,0,
507,48013083,PRIMERO DE MAYO (507),,43.2917412920219,-2.99884124659996,2,,0,,Europe/Madrid,0,0,
508,48013084,ZUHATZU (508),,43.2890849279551,-2.99910015620207,2,,0,,Europe/Madrid,1,0,
510,48013041,RETUERTO (AV. EUSKADI) (510),,43.2845284716243,-2.99490948286545,2,,0,,Europe/Madrid,1,0,
519,48078018,BIZKAIA ZUBIA / PUENTE BIZKAIA (519),,43.323327878582,-3.018968997524,2,,0,,Europe/Madrid,1,0,
520,48078019,DOCTOR AREILZA PARKEA (520),,43.3250394263484,-3.02076879861833,2,,0,,Europe/Madrid,1,0,
521,48078020,PEÑOTA (NAUTIKA) (521),,43.3262637221608,-3.02294865867089,2,,0,,Europe/Madrid,1,0,
522,48082013,IGERILEKUAK / PISCINAS (522),,43.3274604442516,-3.02700712168023,2,,0,,Europe/Madrid,1,0,
523,48082006,PARKEA/PARQUE (ITSASALDE 2) (523),,43.3301605125196,-3.0323738895527,2,,0,,Europe/Madrid,1,0,
528,48082011,ANBULATORIOA (528),,43.3253965961741,-3.03408590435561,2,,0,,Europe/Madrid,1,0,
529,48082012,UDALETXEA / AYUNTAMIENTO (529),,43.3281162419663,-3.03318700532023,2,,0,,Europe/Madrid,1,0,
531,48082014,IGERILEKUAK / PISCINAS (531),,43.3269654856684,-3.02573647111198,2,,0,,Europe/Madrid,1,0,
532,48078021,PEÑOTA (NAUTIKA) (532),,43.3261646619314,-3.0229979578696,2,,0,,Europe/Madrid,1,0,
533,48078022,DOCTOR AREILZA PARKEA (533),,43.3250754925879,-3.02099945487193,2,,0,,Europe/Madrid,1,0,
534,48078023,BIZKAIA ZUBIA / PUENTE BIZKAIA (534),,43.3234999012533,-3.01929687768796,2,,0,,Europe/Madrid,1,0,
543,48013113,LANDETA (PARKEA) (543),,43.2921287434856,-2.98864204896617,2,,0,,Europe/Madrid,1,0,
544,48013039,RESURRECCIÓN MARÍA AZKUE 12 (544),,43.2909493474861,-2.99100905317737,2,,0,,Europe/Madrid,1,0,
546,48013128,ANSIO (546),,43.2893002879664,-2.9868597688716,2,,0,,Europe/Madrid,0,0,
574,48013007,BURTZEÑA (GASOLINDEGIA/GASOLINERA) (574),,43.2796731306881,-2.97887541758114,2,,0,,Europe/Madrid,0,0,
581,48013014,RESURRECCIÓN MARÍA AZKUE 34 (LA RONDA) (581),,43.290013133025,-2.99556160705814,2,,0,,Europe/Madrid,1,0,
584,48013036,GERNIKAKO ARBOLA (EPAITEGIAK/JUZGADOS) (584),,43.2941632182088,-2.99138297054802,2,,0,,Europe/Madrid,0,0,
600,48013106,LA FLORIDA 7 (600),,43.2927947859614,-2.98669419951901,2,,0,,Europe/Madrid,1,0,
601,48013038,LANDABURU (601),,43.2940105665548,-2.98727320942473,2,,0,,Europe/Madrid,1,0,
607,48020020,GRAN VÍA 46 (SOTA) (607),,43.2635129267579,-2.93702079483201,1,,0,,Europe/Madrid,1,0,
632,48020023,GRAN VÍA 79 (632),,43.264604915025,-2.94265486929186,1,,0,,Europe/Madrid,0,0,
642,48013044,RESURRECCIÓN MARÍA AZKUE (BEC) (642),,43.2906341844265,-2.99099677266113,2,,0,,Europe/Madrid,1,0,
649,48013105,LANDETA (GOIKOA) (649),,43.2932903930767,-2.98918424176285,2,,0,,Europe/Madrid,1,0,
666,48013131,MEGAPARK (666),,43.2937141348533,-3.00419913754591,2,,0,,Europe/Madrid,1,0,
667,48013116,MAX CENTER (ALDAITURRIAGA) (667),,43.2900217870887,-3.01187861350681,2,,0,,Europe/Madrid,1,0,
668,48080010,UGARTE (EL JUNCAL) (668),,43.2918574206145,-3.01464469848411,2,,0,,Europe/Madrid,1,0,
669,48080033,EL JUNCAL (FORD) (669),,43.2942707364936,-3.01404122150644,2,,0,,Europe/Madrid,1,0,
671,48080016,TRAPAGA AUZOA (671),,43.299448711952,-3.0187350939443,2,,0,,Europe/Madrid,0,0,
672,48080017,CAUSO (672),,43.2999057397147,-3.02508913466253,2,,0,,Europe/Madrid,1,0,
673,48080002,PRIMERO DE MAYO 53 (673),,43.3006254610116,-3.03233429645664,2,,0,,Europe/Madrid,1,0,
674,48080003,PRIMERO DE MAYO (UDALETXEA/AYUNTAMIENTO) (674),,43.3043971312627,-3.03652827706431,2,,0,,Europe/Madrid,0,0,
675,48080022,FUNIKULAR KALEA (675),,43.3037301012231,-3.03862526352614,2,,0,,Europe/Madrid,1,0,
676,48080023,FUNIKULARRA (GELTOKIA/ESTACIÓN) (676),,43.3014689476684,-3.04171721049226,2,,0,,Europe/Madrid,1,0,
677,48080039,ELGUERO (677),,43.3026721242373,-3.01338969811405,2,,0,,Europe/Madrid,0,0,
678,48080024,FUNIKULAR KALEA (678),,43.303613058367,-3.03857463822206,2,,0,,Europe/Madrid,1,0,
679,48080004,PRIMERO DE MAYO (UDALETXEA/AYUNTAMIENTO) (679),,43.3045590954805,-3.03689826663854,2,,0,,Europe/Madrid,1,0,
680,48080005,PRIMERO DE MAYO 32 (680),,43.3014399933009,-3.03366997213069,2,,0,,Europe/Madrid,1,0,
681,48080019,ARKOTXA (681),,43.3002386312245,-3.03100257239762,2,,0,,Europe/Madrid,1,0,
682,48080020,CAUSO (682),,43.2997795961097,-3.0254466176349,2,,0,,Europe/Madrid,0,0,
683,48080021,TRAPAGA AUZOA (683),,43.2993226555224,-3.01922820305137,2,,0,,Europe/Madrid,0,0,
684,48080034,EL JUNCAL (FORD) (684),,43.2940465783187,-3.01430781655907,2,,0,,Europe/Madrid,0,0,
685,48080015,UGARTE (EL JUNCAL) (685),,43.2919474398848,-3.01485428257571,2,,0,,Europe/Madrid,1,0,
686,48903027,ASUA (686),,43.3043715358195,-2.9461018819188,2,,0,,Europe/Madrid,1,0,
687,48903030,URIBENA (687),,43.3098150335743,-2.94283298200503,2,,0,,Europe/Madrid,0,0,
688,48903007,UDALETXEA/AYUNTAMIENTO (688),,43.3142731418135,-2.93937826565927,2,,0,,Europe/Madrid,1,0,
689,48903008,LANDATXUETA (689),,43.3122079519905,-2.9352949589534,2,,0,,Europe/Madrid,1,0,
690,48903009,AZOKA / FERIAL (690),,43.3113520456564,-2.92991333043479,2,,0,,Europe/Madrid,0,0,
691,48903010,LARRAKOETXE (691),,43.3129119150098,-2.92212176647021,2,,0,,Europe/Madrid,1,0,
692,48903016,LAUROETA (URDANETA) (692),,43.3175829392429,-2.91911187881029,2,,0,,Europe/Madrid,0,0,
693,48903017,LAUROETA  (HARITZMENDI) (693),,43.3233428342067,-2.912300557471,2,,0,,Europe/Madrid,0,0,
694,48903018,LAUROETA (MUNABE) (694),,43.3244013150428,-2.90963050151687,2,,0,,Europe/Madrid,0,0,
695,48903019,LAUROETA (GOZKOETXE) (695),,43.3279689443862,-2.9050930290094,2,,0,,Europe/Madrid,0,0,
696,48903020,LAUROETA (AURREKOETXE) (696),,43.3315511314327,-2.90432377836334,2,,0,,Europe/Madrid,0,0,
697,48903021,MIKEL DEUNAREN ENPARANTZA (697),,43.3342807208168,-2.90150188151376,2,,0,,Europe/Madrid,0,0,
698,48903022,LAUROETA (AURREKOETXE) (698),,43.331661083927,-2.90443955696133,2,,0,,Europe/Madrid,0,0,
699,48903023,LAUROETA (GOZKOETXE) (699),,43.3285037301351,-2.90498969589487,2,,0,,Europe/Madrid,1,0,
700,48903024,LAUROETA (MUNABE) (700),,43.3245274958192,-2.90977831996077,2,,0,,Europe/Madrid,0,0,
701,48903025,LAUROETA (HARITZMENDI) (701),,43.323314396784,-2.91279394017186,2,,0,,Europe/Madrid,0,0,
702,48903026,LAUROETA (URDANETA) (702),,43.3173845155248,-2.91840389540434,2,,0,,Europe/Madrid,1,0,
703,48903031,IBERRE (703),,43.3126994866175,-2.91502433152967,2,,0,,Europe/Madrid,0,0,
704,48903032,LA MERCED (IKASTETXEA/COLEGIO) (704),,43.3130917239222,-2.90516822169977,2,,0,,Europe/Madrid,0,0,
705,48903033,AYALDE (705),,43.3104998360823,-2.89957153257258,2,,0,,Europe/Madrid,0,0,
706,48901033,AIARTZA (706),,43.3067133344472,-2.89557563411287,2,,0,,Europe/Madrid,0,0,
708,48903035,AYALDE (708),,43.3102821517507,-2.89880737462262,2,,0,,Europe/Madrid,0,0,
709,48903036,LA MERCED (IKASTETXEA/COLEGIO) (709),,43.3125558309108,-2.90394578314343,2,,0,,Europe/Madrid,1,0,
710,48903037,IBERRE (710),,43.3129168709466,-2.91407796041774,2,,0,,Europe/Madrid,1,0,
711,48903015,LARRAKOETXE (711),,43.311767189583,-2.92309616057846,2,,0,,Europe/Madrid,1,0,
712,48903014,AZOKA / FERIAL (712),,43.3114523519199,-2.92902907198682,2,,0,,Europe/Madrid,0,0,
713,48903011,LANDATXUETA (713),,43.3123808296827,-2.93527627854846,2,,0,,Europe/Madrid,1,0,
714,48903012,UDALETXEA/AYUNTAMIENTO (714),,43.3143891601858,-2.93911301792163,2,,0,,Europe/Madrid,1,0,
715,48902023,URIBENA (715),,43.3096873121438,-2.94312164218438,2,,0,,Europe/Madrid,1,0,
716,48903038,LOIU (716),,43.3151285874006,-2.94007934648521,2,,0,,Europe/Madrid,1,0,
718,48903039,ELORRITXU (718),,43.322204128869,-2.936261397114,2,,0,,Europe/Madrid,0,0,
719,48903040,ELORRITXU (719),,43.3221953230437,-2.93661907256792,2,,0,,Europe/Madrid,0,0,
720,48903013,LOIU (720),,43.3137421956418,-2.94068495748302,2,,0,,Europe/Madrid,1,0,
722,48901035,AIARTZA (722),,43.3060551512953,-2.89465200666591,2,,0,,Europe/Madrid,1,0,
723,48901036,GANBE (723),,43.3022516755526,-2.89088581270405,2,,0,,Europe/Madrid,1,0,
724,48901037,GANBE (724),,43.3022785009939,-2.89068849607068,2,,0,,Europe/Madrid,1,0,
739,48080028,IBARZAHARRA (FONDO PROMOCIÓN EMPLEO) (739),,43.2987295805415,-3.0068684959749,2,,0,,Europe/Madrid,0,0,
750,48080027,IBARZAHARRA (FONDO PROMOCIÓN EMPLEO) (750),,43.298936620562,-3.0091061633215,2,,0,,Europe/Madrid,0,0,
756,48020022,GRAN VÍA 74 (756),,43.2648487332576,-2.94295849443677,1,,0,,Europe/Madrid,1,0,
757,48082017,BALPARDA (757),,43.3195483026272,-3.04338673368916,2,,0,,Europe/Madrid,0,0,
765,48082009,CABIECES (765),,43.322099623171,-3.03819117329407,2,,0,,Europe/Madrid,1,0,
766,48082018,BALPARDA (766),,43.3196743948354,-3.0433128265534,2,,0,,Europe/Madrid,0,0,
776,48078024,SIMON BOLIBAR 14 (776),,43.3201665601475,-3.02285288033966,2,,0,,Europe/Madrid,1,0,
778,48078025,CAMPANZAR (778),,43.3227957240627,-3.02844819118496,2,,0,,Europe/Madrid,1,0,
786,48013108,LA LIBERTAD (LOS HERMANOS PARKEA) (786),,43.2972795975379,-2.99098334071463,2,,0,,Europe/Madrid,1,0,
801,48084032,VÍA GALINDO 14 (801),,43.3069236742253,-3.00841673923329,2,,0,,Europe/Madrid,1,0,
806,48020036,DEUSTUKO UNIBERTSITATEA (PÍO X PLAZA) (806),,43.2709800352779,-2.94122742945928,1,,0,,Europe/Madrid,1,0,
808,48020062,IBARREKOLANDA (808),,43.2732545943036,-2.95285856010342,1,,0,,Europe/Madrid,1,0,
809,48902089,ENEKURI (GASOLINDEGIA/GASOLINERA) (809),,43.2860253293994,-2.95838283131432,2,,0,,Europe/Madrid,1,0,
810,48902015,ENEKURI (810),,43.2895019164676,-2.96063612597737,2,,0,,Europe/Madrid,1,0,
821,48020079,ARTXANDA (BEGIRATOKIA/MIRADOR) (821),,43.2691578703723,-2.90894395837448,1,,0,,Europe/Madrid,0,0,
823,48020085,ARABELLA (823),,43.2611721289379,-2.91130116122174,1,,0,,Europe/Madrid,1,0,
826,48020083,ZUMALAKARREGI  (PANERA) (826),,43.2649960150466,-2.91851197453957,1,,0,,Europe/Madrid,1,0,
827,48020084,ERNESTO ERKOREKA PLAZA (UDALETXEA/AYUNTAMIENTO) (827),,43.2650073065431,-2.9225823321278,1,,0,,Europe/Madrid,1,0,
829,48020058,CAMPO VOLANTÍN 1 (UDALETXEA/AYUNTAMIENTO) (829),,43.2639549775759,-2.92358984381868,1,,0,,Europe/Madrid,1,0,
837,48902016,FAOETA (837),,43.294757285412,-2.95321610175083,2,,0,,Europe/Madrid,0,0,
838,48902102,ASUA (LA AVANZADA 9) (838),,43.3026788029429,-2.94638695288599,2,,0,,Europe/Madrid,1,0,
839,48904001,ASUA PLAZA (SANGRONIZ) (839),,43.3003349649131,-2.94102594108109,2,,0,,Europe/Madrid,0,0,
840,48904002,SAN JUAN (840),,43.2993913130226,-2.92859951474827,2,,0,,Europe/Madrid,1,0,
841,48904003,BASOZABAL (841),,43.2987890869372,-2.92331754322984,2,,0,,Europe/Madrid,1,0,
842,48904011,BERRETEAGA (842),,43.2979981935457,-2.91910837927805,2,,0,,Europe/Madrid,0,0,
843,48903001,LARRONDO (ELOTXELERRI) (843),,43.2970664088254,-2.91322904458974,2,,0,,Europe/Madrid,1,0,
844,48903002,LARRABARRI (OLARRA) (844),,43.2955391943101,-2.90633990319119,2,,0,,Europe/Madrid,1,0,
845,48903003,ELOTXELERRI  (NAFRISA) (845),,43.2943279636365,-2.90086826980178,2,,0,,Europe/Madrid,0,0,
846,48901001,HILERRIA/CEMENTERIO (846),,43.292582943165,-2.89305557527028,2,,0,,Europe/Madrid,1,0,
847,48901002,UDALETXEA/AYUNTAMIENTO (847),,43.2908210786389,-2.88685831635447,2,,0,,Europe/Madrid,1,0,
849,48905001,LEKUNBIZ (849),,43.2878753662597,-2.87714294526127,2,,0,,Europe/Madrid,0,0,
850,48905002,DOMARTIENA (850),,43.2861668834285,-2.87097868156857,2,,0,,Europe/Madrid,1,0,
851,48905003,ARTEAGA (851),,43.284213615738,-2.86399885439342,2,,0,,Europe/Madrid,1,0,
852,48905004,LARRAGOITI (852),,43.2809533334021,-2.85600264210084,2,,0,,Europe/Madrid,0,0,
853,48081001,KURUTZEA/LA CRUZ (853),,43.2765180082782,-2.84538197306887,2,,0,,Europe/Madrid,1,0,
854,48081002,UZABAL (ATHLETIC) (854),,43.2758301465966,-2.84280800933836,2,,0,,Europe/Madrid,1,0,
855,48081003,ELEXALDE (855),,43.2736370497291,-2.83276568340284,2,,0,,Europe/Madrid,1,0,
856,48081009,IBERRE (856),,43.2702178782907,-2.82271161753587,2,,0,,Europe/Madrid,0,0,
857,48081010,TXAKOLI LOROÑO (857),,43.2679456807616,-2.81763844371096,2,,0,,Europe/Madrid,0,0,
858,48052001,BERRESONAGA (MIRASOL) (858),,43.2648005282959,-2.80811377632133,2,,0,,Europe/Madrid,1,0,
859,48052002,KIZKIBIL (VISTA ALEGRE) (859),,43.2632870661737,-2.80242603519951,2,,0,,Europe/Madrid,1,0,
860,48052003,LARRABETZU (860),,43.2617549028109,-2.7962048876893,2,,0,,Europe/Madrid,1,0,
861,48052004,GOIKOLA (861),,43.2658679423213,-2.79006704157447,2,,0,,Europe/Madrid,0,0,
862,48052005,GOIKOLEXEA (862),,43.2670912398568,-2.78450553306309,2,,0,,Europe/Madrid,1,0,
864,48052007,GOIKOLA (864),,43.2659685952185,-2.7909415546288,2,,0,,Europe/Madrid,0,0,
865,48052006,LARRABETZU (865),,43.2621053798866,-2.79580944097871,2,,0,,Europe/Madrid,1,0,
866,48052010,KIZKIBIL (VISTA ALEGRE) (866),,43.2632590933318,-2.80187166216394,2,,0,,Europe/Madrid,1,0,
867,48052011,BERRESONAGA (MIRASOL) (867),,43.2648357396914,-2.8076331182862,2,,0,,Europe/Madrid,1,0,
868,48081013,TXAKOLI LOROÑO (868),,43.267976161514,-2.8172716391907,2,,0,,Europe/Madrid,0,0,
869,48081014,IBERRE (869),,43.2707877734148,-2.82439820488165,2,,0,,Europe/Madrid,0,0,
870,48081006,ELEXALDE (870),,43.2739889494956,-2.8332576628888,2,,0,,Europe/Madrid,1,0,
871,48081007,UZABAL (ATHLETIC) (871),,43.2759325433155,-2.84177302530015,2,,0,,Europe/Madrid,0,0,
872,48081008,KURUTZEA/LA CRUZ (872),,43.2766981340082,-2.84540616525442,2,,0,,Europe/Madrid,0,0,
873,48905005,LARRAGOITI (873),,43.2809886523513,-2.85544793424122,2,,0,,Europe/Madrid,0,0,
874,48905006,ARTEAGA (874),,43.2846648691021,-2.86486065044229,2,,0,,Europe/Madrid,1,0,
875,48905007,DOMARTIENA (875),,43.2861934238118,-2.87055954006305,2,,0,,Europe/Madrid,1,0,
876,48905008,LEKUNBIZ (876),,43.287513207958,-2.87515445451752,2,,0,,Europe/Madrid,1,0,
878,48901005,UDALETXEA/AYUNTAMIENTO (878),,43.2911639224238,-2.88753554508421,2,,0,,Europe/Madrid,1,0,
879,48901006,HILERRIA/CEMENTERIO (879),,43.2927633116415,-2.89335111607784,2,,0,,Europe/Madrid,1,0,
880,48903004,ELOTXELERRI  (NAFRISA) (880),,43.2945262785091,-2.90111450217892,2,,0,,Europe/Madrid,0,0,
881,48903005,LARRABARRI (OLARRA) (881),,43.2955928374416,-2.90587135911417,2,,0,,Europe/Madrid,1,0,
882,48903006,LARRONDO (ELOTXELERRI) (882),,43.2971381175797,-2.9127974537677,2,,0,,Europe/Madrid,1,0,
883,48904004,BERRETEAGA (883),,43.298060849699,-2.91857817331639,2,,0,,Europe/Madrid,1,0,
884,48904005,BASOZABAL (884),,43.2989195006597,-2.92308929999851,2,,0,,Europe/Madrid,0,0,
885,48904006,SAN JUAN (885),,43.2995531954738,-2.9282787780495,2,,0,,Europe/Madrid,1,0,
886,48904010,ASUA PLAZA (SANGRONIZ) (886),,43.3007849125846,-2.94135099153983,2,,0,,Europe/Madrid,0,0,
887,48902103,ASUA (INBISA) (887),,43.3024542250643,-2.94754610703756,2,,0,,Europe/Madrid,1,0,
888,48902018,FAOETA (888),,43.2950911604092,-2.95361785667435,2,,0,,Europe/Madrid,0,0,
889,48902019,ENEKURI (889),,43.289196019445,-2.96140057552057,2,,0,,Europe/Madrid,1,0,
890,48020063,IBARREKOLANDA (890),,43.2732998999016,-2.95354863781794,1,,0,,Europe/Madrid,1,0,
894,48020060,CAMPO VOLANTÍN (LA SALVE) (894),,43.2692805214806,-2.93036481828359,1,,0,,Europe/Madrid,1,0,
896,48020179,MOYUA PLAZA (OGASUNA/HACIENDA) (896),,43.2626475896687,-2.9354274348789,1,,0,,Europe/Madrid,1,0,
897,48066018,ERROTA (897),,43.2989846654928,-2.74512541351628,3,,0,,Europe/Madrid,0,0,
898,48066019,ERROTA (898),,43.2987773429025,-2.74478601074009,3,,0,,Europe/Madrid,0,0,
899,48905031,TEKNOLOGIA-PARKEA (ARTEAGA) (899),,43.285449239504,-2.8580749902505,2,,0,,Europe/Madrid,0,0,
900,48905032,TEKNOLOGIA-PARKEA (ARTEAGA) (900),,43.2855131565529,-2.85878974407964,2,,0,,Europe/Madrid,0,0,
901,48905036,TORRELARRAGOITI (901),,43.2762022446395,-2.85172964492426,2,,0,,Europe/Madrid,1,0,
902,48020132,ARABELLA (902),,43.2607131102643,-2.91158520828895,1,,0,,Europe/Madrid,1,0,
904,48020134,EGIRLETA/SANTO DOMINGO (904),,43.2690284683943,-2.90538723905483,1,,0,,Europe/Madrid,0,0,
906,48905017,EGIRLETA (906),,43.2797020979025,-2.89810699818956,2,,0,,Europe/Madrid,0,0,
907,48905010,GALBARRIATU (907),,43.2819973945017,-2.89751599550034,2,,0,,Europe/Madrid,0,0,
908,48905011,BILBOBARRI (908),,43.2874037406958,-2.89132676602748,2,,0,,Europe/Madrid,1,0,
909,48901024,UGALDEGUREN INDUSTRIALDEA (909),,43.289432548701,-2.88951359510943,2,,0,,Europe/Madrid,1,0,
910,48901015,MUNGIALDE ETORBIDEA 4 (910),,43.2922812432667,-2.88829777711023,2,,0,,Europe/Madrid,1,0,
911,48901007,ALDEKONE (911),,43.2983208835284,-2.88589487128642,2,,0,,Europe/Madrid,1,0,
912,48901017,ERREKALDE (912),,43.2988818250279,-2.87978376588091,2,,0,,Europe/Madrid,0,0,
913,48901022,ABELETXEA/GRANJA (913),,43.2946195255863,-2.86868005756253,2,,0,,Europe/Madrid,1,0,
914,48905019,BIDEKURTZE (914),,43.2959844129057,-2.86539774426097,2,,0,,Europe/Madrid,1,0,
915,48905021,TEKNOLOGIA-PARKEA (INNOBASQUE) (915),,43.2915045493647,-2.86157278224743,2,,0,,Europe/Madrid,0,0,
916,48905023,TEKNOLOGIA-PARKEA (ITP) (916),,43.2912300766923,-2.85803677170698,2,,0,,Europe/Madrid,1,0,
918,48905027,OSPITALE PSIKIATRIKOA/HOSPITAL PSIQUIÁTRICO (918),,43.2898250922501,-2.8542483235862,2,,0,,Europe/Madrid,1,0,
919,48905009,SANDOIKALDE (919),,43.2887152964741,-2.85604584249873,2,,0,,Europe/Madrid,1,0,
920,48905035,TEKNOLOGIA-PARKEA (EUSKALTEL) (920),,43.2945386533527,-2.86119730144657,2,,0,,Europe/Madrid,1,0,
921,48905028,OSPITALE PSIKIATRIKOA/HOSPITAL PSIQUIÁTRICO (921),,43.2892898709531,-2.85475487163579,2,,0,,Europe/Madrid,1,0,
923,48905024,TEKNOLOGIA-PARKEA (ITP) (923),,43.2916796170164,-2.85748100441371,2,,0,,Europe/Madrid,1,0,
924,48905022,TEKNOLOGIA-PARKEA (EUSKALTEL) (924),,43.2947547037241,-2.86114737570928,2,,0,,Europe/Madrid,0,0,
925,48905020,BIDEKURTZE (925),,43.2962903950555,-2.86524913240098,2,,0,,Europe/Madrid,0,0,
926,48901023,ABELETXEA/GRANJA (926),,43.2947365570966,-2.86865515020507,2,,0,,Europe/Madrid,1,0,
927,48901016,SAN CRISTOBAL (927),,43.3003119784203,-2.87828915210464,2,,0,,Europe/Madrid,1,0,
928,48901013,ALDEKONE (928),,43.2984201061895,-2.88606728490792,2,,0,,Europe/Madrid,1,0,
929,48901014,MUNGIALDE ETORBIDEA 1 (929),,43.2917773935006,-2.88871782299092,2,,0,,Europe/Madrid,1,0,
930,48901025,UGALDEGUREN INDUSTRIALDEA (930),,43.2893471951723,-2.88971097646636,2,,0,,Europe/Madrid,1,0,
931,48905012,BILBOBARRI (931),,43.2873863518856,-2.89226827848046,2,,0,,Europe/Madrid,1,0,
932,48905016,VIZCAYA IKASTETXEA (932),,43.284175067874,-2.89591000751728,2,,0,,Europe/Madrid,1,0,
933,48905013,GALBARRIATU (933),,43.2822043794567,-2.89738007046464,2,,0,,Europe/Madrid,1,0,
934,48905018,EGIRLETA (934),,43.2814049789893,-2.8992391726764,2,,0,,Europe/Madrid,0,0,
936,48020137,ARTXANDA (EL GALLO) (936),,43.2707780646286,-2.90869939749487,1,,0,,Europe/Madrid,0,0,
937,48905034,TEKNOLOGIA-PARKEA (ITP) (937),,43.2914102452247,-2.85809798812883,2,,0,,Europe/Madrid,1,0,
938,48905038,SANTIMAMI (938),,43.2910517409016,-2.89280419821992,2,,0,,Europe/Madrid,0,0,
939,48905037,SANTIMAMI (939),,43.2912139509628,-2.89293951095412,2,,0,,Europe/Madrid,1,0,
941,48020109,ZUMALAKARREGI 121 (BEGOÑA) (941),,43.2603553665131,-2.9140827883811,1,,0,,Europe/Madrid,1,0,
944,48020180,MAURICE RAVEL (BEGIRATOKIA/MIRADOR) (944),,43.2699244480716,-2.92279359696577,1,,0,,Europe/Madrid,1,0,
949,48020129,MUSEO PLAZA (949),,43.2658991635199,-2.93701833489073,1,,0,,Europe/Madrid,1,0,
964,48902005,JOSE LUIS GOIOAGA (AXPEKO DARTSENA) (964),,43.3089828802662,-2.9772746164939,2,,0,,Europe/Madrid,1,0,
965,48902091,AXPE ERRIBERA (965),,43.313324246639,-2.98408000085277,2,,0,,Europe/Madrid,1,0,
968,48902099,MEZO 36 (ELEXAZPI) (968),,43.3157012110173,-2.978204166112,2,,0,,Europe/Madrid,1,0,
992,48902083,MEZO 41 (ELEXAZPI) (992),,43.3157822264084,-2.97806848491211,2,,0,,Europe/Madrid,1,0,
997,48902011,ALTZAGA (PASAIA/PASAJE) (997),,43.302689342626,-2.97708708842461,2,,0,,Europe/Madrid,1,0,
999,48902013,RIBERA DE ERANDIO (999),,43.2965834833599,-2.97409388919644,2,,0,,Europe/Madrid,0,0,
1003,48903029,AIREPORTUA/AEROPUERTO (ETORRERAK/LLEGADAS) (1003),,43.3054343108299,-2.90528875239116,2,,0,,Europe/Madrid,1,1,
1040,48078033,LA FLORIDA (1040),,43.3177986852276,-3.0263370143322,2,,0,,Europe/Madrid,1,0,
1046,48913021,ATXIGA (1046),,43.3510653799479,-3.09933026446758,3,,0,,Europe/Madrid,1,0,
1047,48913022,ATXIGA (1047),,43.3512094415883,-3.0993428385973,3,,0,,Europe/Madrid,1,0,
1048,48082020,ITSASALDE 48 (1048),,43.3330135048362,-3.03716158213712,2,,0,,Europe/Madrid,1,0,
1049,48082021,IPARRAGIRRE (SARDINERA) (1049),,43.3355139900233,-3.04183142474433,2,,0,,Europe/Madrid,0,0,
1050,48082026,LANDETA (SAN JUAN) (1050),,43.3370346486336,-3.0447685132383,2,,0,,Europe/Madrid,0,0,
1051,48082035,IPARRAGIRRE (IBERDROLA) (1051),,43.3395354869778,-3.05059333355917,2,,0,,Europe/Madrid,0,0,
1052,48082019,IPARRAGIRRE (REPSOL) (1052),,43.3426467219807,-3.0596022615273,2,,0,,Europe/Madrid,0,0,
1054,48913001,PADEROJOS (1054),,43.3501752675264,-3.075965566534,3,,0,,Europe/Madrid,0,0,
1055,48913002,VIRGEN DEL PUERTO (LAZKANO) (1055),,43.3515054833618,-3.07970601899031,3,,0,,Europe/Madrid,0,0,
1056,48913003,PORTUA/PUERTO (1056),,43.3503962686046,-3.08204910606332,3,,0,,Europe/Madrid,0,0,
1057,48913004,VALLE (1057),,43.3421697429381,-3.08326078269775,3,,0,,Europe/Madrid,0,0,
1058,48913020,LA CUESTA (UDALETXEA/AYUNTAMIENTO) (1058),,43.3458516963336,-3.08842721495958,3,,0,,Europe/Madrid,1,0,
1059,48913011,LA CUESTA 82 (1059),,43.346914137117,-3.09061967298812,3,,0,,Europe/Madrid,0,0,
1060,48913007,SAN MAMÉS (1060),,43.3502307729849,-3.09603439214351,3,,0,,Europe/Madrid,0,0,
1061,48913008,LA ARENA (1061),,43.3488938192165,-3.11248683451911,3,,0,,Europe/Madrid,0,0,
1062,48071025,KIROLDEGIA / POLIDEPORTIVO (1062),,43.3224148026157,-3.11814288975321,3,,0,,Europe/Madrid,1,0,
1063,48071043,AUTONOMÍA (1063),,43.3193391441363,-3.12297753088218,3,,0,,Europe/Madrid,1,0,
1064,48071002,LAS ACACIAS (1064),,43.320473269529,-3.12990317719136,3,,0,,Europe/Madrid,1,0,
1065,48071042,SAN JUAN (1065),,43.3229147603996,-3.12879836737415,3,,0,,Europe/Madrid,1,0,
1066,48071047,SAN JUAN (Muskiz) (1066),,43.3228064694165,-3.12900780710536,3,,0,,Europe/Madrid,1,0,
1067,48071008,LAS ACACIAS (1067),,43.3195916047301,-3.12921066258771,3,,0,,Europe/Madrid,1,0,
1068,48071016,AUTONOMÍA (1068),,43.3187803961645,-3.12340804595371,3,,0,,Europe/Madrid,0,0,
1069,48071038,KIROLDEGIA / POLIDEPORTIVO (1069),,43.3224330471851,-3.11791475783763,3,,0,,Europe/Madrid,0,0,
1070,48913009,LA ARENA (1070),,43.3487588847888,-3.11235085969488,3,,0,,Europe/Madrid,1,0,
1071,48913010,SAN MAMÉS (1071),,43.3500597387993,-3.09597242768887,3,,0,,Europe/Madrid,1,0,
1072,48913006,LA CUESTA 59 (1072),,43.3481104657292,-3.09018256995219,3,,0,,Europe/Madrid,0,0,
1073,48913005,LA CUESTA (UDALETXEA/AYUNTAMIENTO) (1073),,43.3462203747525,-3.08908167372767,3,,0,,Europe/Madrid,0,0,
1074,48913012,VALLE (1074),,43.3425150991778,-3.08296922765535,3,,0,,Europe/Madrid,0,0,
1075,48913013,PORTUA/PUERTO (1075),,43.3501605896496,-3.08209123468269,3,,0,,Europe/Madrid,0,0,
1076,48913014,VIRGEN DEL PUERTO (LAZKANO) (1076),,43.3513704567217,-3.07964661401121,3,,0,,Europe/Madrid,0,0,
1077,48913015,PADEROJOS (1077),,43.3505980276315,-3.07664474255032,3,,0,,Europe/Madrid,0,0,
1079,48082032,IPARRAGIRRE (REPSOL) (1079),,43.3429894934921,-3.06102832153306,2,,0,,Europe/Madrid,0,0,
1080,48082036,IPARRAGIRRE (IBERDROLA) (1080),,43.3393116362438,-3.05058771951079,2,,0,,Europe/Madrid,0,0,
1081,48082031,LANDETA (SAN JUAN) (1081),,43.3374484379837,-3.04582974813094,2,,0,,Europe/Madrid,0,0,
1082,48082022,IPARRAGIRRE (SARDINERA) (1082),,43.3352721025044,-3.04165325073104,2,,0,,Europe/Madrid,1,0,
1084,48082033,SABINO ARANA (1084),,43.33043880832,-3.03523575437426,2,,0,,Europe/Madrid,0,0,
1086,48082046,PARKEA/PARQUE (SIGLO XVIII) (1086),,43.3283498381318,-3.03087341490601,2,,0,,Europe/Madrid,1,0,
1094,48078009,LA FLORIDA (1094),,43.3180417891781,-3.02642344668318,2,,0,,Europe/Madrid,1,0,
1095,48082028,SAN JUAN (1095),,43.336043231427,-3.04704996735961,2,,0,,Europe/Madrid,0,0,
1097,48082038,SAN JUAN (BIDEGURUTZEA/CRUCE) (1097),,43.3354133785929,-3.04590223365622,2,,0,,Europe/Madrid,1,0,
1098,48082039,REGALES 11-15 (1098),,43.3342260879163,-3.04250900718291,2,,0,,Europe/Madrid,1,0,
1099,48082040,MAMARIGA 139 (1099),,43.3325847701654,-3.04017239708368,2,,0,,Europe/Madrid,1,0,
1100,48082030,MAMARIGA (PLAZA) (1100),,43.3316308948194,-3.03840042958999,2,,0,,Europe/Madrid,1,0,
1106,48082034,MAMARIGA (PLAZA) (1106),,43.3318774284835,-3.03816535115892,2,,0,,Europe/Madrid,0,0,
1107,48082041,REGALES 4 (1107),,43.3327153367605,-3.04017124959885,2,,0,,Europe/Madrid,1,0,
1108,48082042,REGALES 32 (1108),,43.3343881562363,-3.04254612758547,2,,0,,Europe/Madrid,1,0,
1109,48082043,SAN JUAN (BIDEGURUTZEA/CRUCE) (1109),,43.3352976507846,-3.04572537203301,2,,0,,Europe/Madrid,0,0,
1111,48002006,LAS CARRERAS (AMBROSIO DE LOS HEROS 39) (1111),,43.3189939960746,-3.09789205977334,3,,0,,Europe/Madrid,1,0,
1112,48002007,LAS CARRERAS (GURE ETXEA) (1112),,43.3178184251603,-3.09105035855049,3,,0,,Europe/Madrid,1,0,
1113,48002038,EL BAO (1113),,43.3209973388675,-3.08070284462868,3,,0,,Europe/Madrid,0,0,
1114,48002008,EL CASAL (1114),,43.3220068671861,-3.07232001672446,3,,0,,Europe/Madrid,1,0,
1115,48002009,LAS POSTAS (1115),,43.3214451031869,-3.06831341441242,3,,0,,Europe/Madrid,1,0,
1116,48083021,NOCEDAL (1116),,43.3190456498818,-3.06232456579216,2,,0,,Europe/Madrid,1,0,
1117,48083003,CATALINA GIBAJA 23 (1117),,43.310575337052,-3.05653280897326,2,,0,,Europe/Madrid,1,0,
1118,48083008,EL MINERO (ANBULATORIOA) (1118),,43.3087764297303,-3.05230174405114,2,,0,,Europe/Madrid,1,0,
1119,48083009,ETXABA (1119),,43.3075181836412,-3.04654239120486,2,,0,,Europe/Madrid,1,0,
1120,48083010,URIOSTE (1120),,43.3095059683978,-3.04032797524435,2,,0,,Europe/Madrid,1,0,
1134,48083005,URIOSTE (1134),,43.3098607230642,-3.03963127156723,2,,0,,Europe/Madrid,1,0,
1135,48083006,ETXABA (1135),,43.3079327924382,-3.04555627273361,2,,0,,Europe/Madrid,1,0,
1136,48083007,EL MINERO (ANBULATORIOA) (1136),,43.3083897615772,-3.05113001241402,2,,0,,Europe/Madrid,0,0,
1137,48083002,CATALINA GIBAJA 40 (1137),,43.3105304174877,-3.05632314101857,2,,0,,Europe/Madrid,1,0,
1138,48083020,NOCEDAL (1138),,43.3193065264141,-3.06279347635052,2,,0,,Europe/Madrid,1,0,
1139,48002002,LAS POSTAS (1139),,43.321712020166,-3.06857900105555,3,,0,,Europe/Madrid,1,0,
1140,48002003,EL CASAL (1140),,43.3221103854703,-3.07237440603933,3,,0,,Europe/Madrid,1,0,
1141,48002018,EL BAO (1141),,43.3211954046866,-3.08075243925266,3,,0,,Europe/Madrid,0,0,
1142,48002004,LAS CARRERAS (GURE ETXEA) (1142),,43.3179984872436,-3.09108762481595,3,,0,,Europe/Madrid,1,0,
1143,48002005,LAS CARRERAS (AMBROSIO DE LOS HEROS 42) (1143),,43.3191201550423,-3.0977812680419,3,,0,,Europe/Madrid,1,0,
1146,48084020,LAS LLANAS (1146),,43.3092639749255,-3.0083602176025,2,,0,,Europe/Madrid,1,0,
1152,48083017,SAN ANTÓN (1152),,43.3080086910508,-3.03422464540515,2,,0,,Europe/Madrid,1,0,
1153,48080029,ALTO ALDAY (1153),,43.3044533872991,-3.02835369844884,2,,0,,Europe/Madrid,0,0,
1154,48080035,SALCEDILLO (1154),,43.3044639728861,-3.02102984127534,2,,0,,Europe/Madrid,1,0,
1155,48080030,GALINDO (1155),,43.305283944811,-3.01718307185817,2,,0,,Europe/Madrid,0,0,
1169,48080025,GALINDO (1169),,43.3049958936499,-3.01652950911611,2,,0,,Europe/Madrid,0,0,
1170,48080036,SALCEDILLO (1170),,43.3046530945279,-3.02089427897032,2,,0,,Europe/Madrid,0,0,
1171,48080026,ALTO ALDAY (1171),,43.3046789574235,-3.02645501753367,2,,0,,Europe/Madrid,1,0,
1172,48083016,SAN ANTÓN (1172),,43.3083148659559,-3.03416316462478,2,,0,,Europe/Madrid,1,0,
1175,48080032,FUNIKULAR KALEA (UDALETXEA/AYUNTAMIENTO) (1175),,43.3053424843518,-3.03693573018408,2,,0,,Europe/Madrid,1,0,
1180,48002059,GALLARTA (1180),,43.3174340638102,-3.07470941352309,3,,0,,Europe/Madrid,1,0,
1181,48002060,GALLARTA (1181),,43.3176154227525,-3.07511191835346,3,,0,,Europe/Madrid,1,0,
1182,48002056,EL CAMPILLO (SAN MIGUEL) (1182),,43.3084838137921,-3.07654347038162,3,,0,,Europe/Madrid,1,0,
1183,48002055,EL CAMPILLO (SAN MIGUEL) (1183),,43.308141506889,-3.07674045178695,3,,0,,Europe/Madrid,1,0,
1184,48002058,LAS CALIZAS (1184),,43.3034024165575,-3.07841574379682,3,,0,,Europe/Madrid,0,0,
1185,48002057,LAS CALIZAS (1185),,43.3031247822407,-3.07844806003753,3,,0,,Europe/Madrid,0,0,
1186,48083027,TRIANO (1186),,43.2955671654723,-3.06856379090378,3,,0,,Europe/Madrid,1,0,
1187,48083028,TRIANO (1187),,43.2955943783545,-3.06823096705505,3,,0,,Europe/Madrid,1,0,
1188,48080038,LA ARBOLEDA (1188),,43.2849045653482,-3.05362541505804,3,,0,,Europe/Madrid,0,0,
1189,48080031,FUNIKULAR KALEA (UDALETXEA/AYUNTAMIENTO) (1189),,43.3053964401084,-3.0371577014567,2,,0,,Europe/Madrid,1,0,
1190,48002047,EL CAMPILLO INDUSTRIALDEA (1190),,43.3078851204691,-3.08284368961064,3,,0,,Europe/Madrid,1,0,
1191,48002014,EL MINERO 33 (1191),,43.3118988286773,-3.07307034729932,3,,0,,Europe/Madrid,0,0,
1192,48002015,EL MINERO 17 (1192),,43.3135738515562,-3.07266528880912,3,,0,,Europe/Madrid,1,0,
1193,48002016,INSTITUTUA/INSTITUTO (1193),,43.3164901406727,-3.07466657439958,3,,0,,Europe/Madrid,1,0,
1194,48002017,UDALETXEA/AYUNTAMIENTO (1194),,43.3207143048605,-3.07295733400509,3,,0,,Europe/Madrid,1,0,
1195,48002053,EL CAMPILLO (SAN MIGUEL) (1195),,43.3084542327201,-3.0780769825303,3,,0,,Europe/Madrid,1,0,
1197,48045004,SODUPE (GELTOKIA/ESTACIÓN) (1197),,43.2021602745983,-3.050775090903,3,,0,,Europe/Madrid,0,0,
1198,48045031,ZERIBAI (1198),,43.1990531874076,-3.05541072202867,3,,0,,Europe/Madrid,1,0,
1199,48045033,ARTXUBE (1199),,43.2008367386184,-3.07094622339227,3,,0,,Europe/Madrid,0,0,
1200,48045005,LAMBARRI (1200),,43.2064113586144,-3.08331189041204,3,,0,,Europe/Madrid,0,0,
1201,48045014,UDALETXEA / AYUNTAMIENTO (1201),,43.209939484189,-3.09469372688583,3,,0,,Europe/Madrid,1,0,
1202,48045018,EUSKADI PLAZA (1202),,43.2126421429135,-3.09559453434634,3,,0,,Europe/Madrid,0,0,
1203,48045029,ARANGOITI (GUEÑES) (1203),,43.2128699677141,-3.10295702695949,3,,0,,Europe/Madrid,0,0,
1204,48096033,ARANGOITI (ZALLA) (1204),,43.2119740188662,-3.10781839848269,3,,0,,Europe/Madrid,0,0,
1205,48096016,ARANGUREN (1205),,43.2112545064712,-3.11407318157218,3,,0,,Europe/Madrid,0,0,
1206,48096011,LUSA (1206),,43.213515710509,-3.13000834088318,3,,0,,Europe/Madrid,0,0,
1207,48096014,LUSA (1207),,43.2133468602039,-3.1300182006407,3,,0,,Europe/Madrid,0,0,
1208,48096015,ARANGUREN (1208),,43.2107133843449,-3.11490930963123,3,,0,,Europe/Madrid,0,0,
1209,48096034,ARANGOITI (ZALLA) (1209),,43.211911101643,-3.10769517692665,3,,0,,Europe/Madrid,0,0,
1210,48045030,ARANGOITI (GUEÑES) (1210),,43.2127351731823,-3.10264901925401,3,,0,,Europe/Madrid,0,0,
1211,48045019,EUSKADI PLAZA (1211),,43.2124710425218,-3.09560657829597,3,,0,,Europe/Madrid,1,0,
1212,48045015,UDALETXEA / AYUNTAMIENTO (1212),,43.2097613720288,-3.09469135853741,3,,0,,Europe/Madrid,1,0,
1213,48045006,LAMBARRI (1213),,43.2062942070896,-3.08343483041549,3,,0,,Europe/Madrid,0,0,
1214,48045034,ARTXUBE (1214),,43.2005847118813,-3.07077360823726,3,,0,,Europe/Madrid,1,0,
1215,48045032,ZERIBAI (1215),,43.1989722040055,-3.05528756402918,3,,0,,Europe/Madrid,1,0,
1216,48045007,SODUPE (GELTOKIA/ESTACIÓN) (1216),,43.2022234332684,-3.05049203339448,3,,0,,Europe/Madrid,0,0,
1217,48096037,RETOLA (1217),,43.2219510522187,-3.17246948794932,3,,0,,Europe/Madrid,1,0,
1218,48086032,MALABRIGO (1218),,43.2173529883364,-3.17617480216806,3,,0,,Europe/Madrid,1,0,
1219,48086026,EL MAZO (1219),,43.222450454997,-3.18143489840053,3,,0,,Europe/Madrid,1,0,
1220,48086027,LA HERBOSA (1220),,43.2272241177845,-3.19176831445167,3,,0,,Europe/Madrid,1,0,
1221,48002011,UDALETXEA/AYUNTAMIENTO (1221),,43.321434552796,-3.07314319330111,3,,0,,Europe/Madrid,1,0,
1222,48002012,INSTITUTUA/INSTITUTO (1222),,43.3172555704104,-3.0746058500069,3,,0,,Europe/Madrid,1,0,
1223,48002013,EL MINERO 44 (1223),,43.3139249085164,-3.07299866152697,3,,0,,Europe/Madrid,1,0,
1224,48002050,EL MINERO 56 (1224),,43.3126372665397,-3.07297492386016,3,,0,,Europe/Madrid,1,0,
1236,48071026,ANTONIO TRUEBA (1236),,43.3220492478651,-3.11457157112441,3,,0,,Europe/Madrid,1,0,
1237,48071027,SANTELICES (1237),,43.3155866025939,-3.12075156338875,3,,0,,Europe/Madrid,1,0,
1238,48071028,NESILLA (1238),,43.3062390538428,-3.12148420847862,3,,0,,Europe/Madrid,0,0,
1239,48071044,EL POBAL (1239),,43.2992379255649,-3.12577310030019,3,,0,,Europe/Madrid,0,0,
1240,48037003,LA OLLA (1240),,43.2913187403251,-3.12946747720645,3,,0,,Europe/Madrid,0,0,
1241,48037001,EL BENTORRO (ARENAO) (1241),,43.280069201059,-3.13953800718736,3,,0,,Europe/Madrid,0,0,
1242,48086020,LA JARA (1242),,43.274151281323,-3.14824972476156,3,,0,,Europe/Madrid,0,0,
1243,48086001,LA BALUGA (1243),,43.2740160309028,-3.15517537325716,3,,0,,Europe/Madrid,0,0,
1244,48086002,CASTAÑO NUEVO (1244),,43.2786582407681,-3.16461530370644,3,,0,,Europe/Madrid,0,0,
1245,48086003,COTARROS (1245),,43.2698464942094,-3.15392338744044,3,,0,,Europe/Madrid,1,0,
1246,48086008,MERCADILLO 26 (1246),,43.264363597092,-3.15321956125212,3,,0,,Europe/Madrid,1,0,
1247,48086004,MERCADILLO (UDALETXEA/AYUNTAMIENTO) (1247),,43.2619688040022,-3.15449187523048,3,,0,,Europe/Madrid,0,0,
1248,48086024,EL CARRAL (ESNETEGIA/LECHERÍA) (1248),,43.2551264148443,-3.15362475905798,3,,0,,Europe/Madrid,0,0,
1249,48086005,EL CARRAL (1249),,43.2496040519936,-3.15553259014747,3,,0,,Europe/Madrid,1,0,
1250,48086006,ABELLANEDA (ELIZA/IGLESIA) (1250),,43.2321276082975,-3.15921014636469,3,,0,,Europe/Madrid,1,0,
1251,48086033,ABELLANEDA (1251),,43.2295683656073,-3.16057040825273,3,,0,,Europe/Madrid,1,0,
1252,48096019,OTXARAN GOIKOA (1252),,43.2232393540223,-3.16768839817894,3,,0,,Europe/Madrid,0,0,
1253,48096008,RETOLA (1253),,43.2224488139545,-3.17254255383633,3,,0,,Europe/Madrid,1,0,
1254,48096013,OTXARAN (1254),,43.2199971480939,-3.1680293164018,3,,0,,Europe/Madrid,0,0,
1255,48096021,LA FLOR (EL PARAÍSO) (1255),,43.2198020227704,-3.15633655725351,3,,0,,Europe/Madrid,1,0,
1256,48096022,LA LLANA (1256),,43.2168133280916,-3.14176880601067,3,,0,,Europe/Madrid,1,0,
1257,48096023,MIMETIZ (UDALETXEA/AYUNTAMIENTO) (1257),,43.2142045297941,-3.13394949468471,3,,0,,Europe/Madrid,0,0,
1258,48096024,SAN PEDRO ZARIKETE (ERMITA) (1258),,43.2094979430868,-3.14097888044193,3,,0,,Europe/Madrid,0,0,
1259,48096017,LAS PEDRAJAS (1259),,43.2040260166072,-3.15943075396183,3,,0,,Europe/Madrid,0,0,
1260,48096026,LA HERRERA - IJALDE (1260),,43.2037728257235,-3.17089190096135,3,,0,,Europe/Madrid,0,0,
1263,48090002,CAMPO DE LAS MONJAS (1263),,43.1931246859101,-3.19787546444696,4,,0,,Europe/Madrid,1,0,
1267,48096027,LA HERRERA - IJALDE (1267),,43.2031717785988,-3.16936386851139,3,,0,,Europe/Madrid,0,0,
1268,48096018,LAS PEDRAJAS (1268),,43.2039895340419,-3.15976301485737,3,,0,,Europe/Madrid,0,0,
1269,48096029,SAN PEDRO ZARIKETE (ERMITA) (1269),,43.2094981250304,-3.1408311538275,3,,0,,Europe/Madrid,1,0,
1270,48096030,MIMETIZ (UDALETXEA/AYUNTAMIENTO) (1270),,43.2140873529737,-3.13404773030105,3,,0,,Europe/Madrid,1,0,
1271,48096031,LA LLANA (1271),,43.2169706786385,-3.14195631429173,3,,0,,Europe/Madrid,1,0,
1272,48096032,LA FLOR (EL PARAÍSO) (1272),,43.2199684483119,-3.15645518430663,3,,0,,Europe/Madrid,1,0,
1273,48096012,OTXARAN (1273),,43.22005150162,-3.16780783691356,3,,0,,Europe/Madrid,1,0,
1274,48096009,RETOLA (1274),,43.2223765162481,-3.17271473441421,3,,0,,Europe/Madrid,1,0,
1275,48096020,OTXARAN GOIKOA (1275),,43.223167742002,-3.16739760719237,3,,0,,Europe/Madrid,0,0,
1276,48086034,ABELLANEDA (1276),,43.2292443348969,-3.16047104119535,3,,0,,Europe/Madrid,1,0,
1277,48086013,ABELLANEDA (ELIZA/LGLESIA) (1277),,43.2319476001891,-3.15914810228355,3,,0,,Europe/Madrid,0,0,
1278,48086014,EL CARRAL (1278),,43.2496403049923,-3.15536022105194,3,,0,,Europe/Madrid,1,0,
1279,48086025,EL CARRAL (ESNETEGIA/LECHERÍA) (1279),,43.25525271151,-3.15345259935825,3,,0,,Europe/Madrid,0,0,
1280,48086016,MERCADILLO  (UDALETXEA/AYUNTAMIENTO) (1280),,43.2618613464513,-3.15404804280738,3,,0,,Europe/Madrid,1,0,
1281,48086015,MERCADILLO 9 (1281),,43.264417971222,-3.15296094304123,3,,0,,Europe/Madrid,1,0,
1282,48086017,COTARROS (1282),,43.270064747058,-3.15387144236009,3,,0,,Europe/Madrid,1,0,
1284,48086018,LA BALUGA (1284),,43.274032799434,-3.15608736123444,3,,0,,Europe/Madrid,1,0,
1285,48086011,LA JARA (1285),,43.2736379696219,-3.14828544927716,3,,0,,Europe/Madrid,0,0,
1286,48037002,EL BENTORRO (ARENAO) (1286),,43.2803843628009,-3.13953872741515,3,,0,,Europe/Madrid,0,0,
1287,48037004,LA OLLA (1287),,43.2905438549093,-3.12989727578927,3,,0,,Europe/Madrid,0,0,
1288,48071045,EL POBAL (1288),,43.2999422891724,-3.12393755817124,3,,0,,Europe/Madrid,0,0,
1289,48071029,NESILLA (1289),,43.3056991317099,-3.12115022377318,3,,0,,Europe/Madrid,0,0,
1290,48071030,SANTELICES (1290),,43.3165511044612,-3.11979033023175,3,,0,,Europe/Madrid,1,0,
1294,48087012,BENIGNO GARAY (1294),,43.2659594165373,-3.25745498224723,5,,0,,Europe/Madrid,1,0,
1295,48087013,BENIGNO GARAY (1295),,43.266014053796,-3.25718412931091,5,,0,,Europe/Madrid,0,0,
1297,48071022,GELTOKIA/ESTACIÓN (1297),,43.3219427952208,-3.11286938026634,3,,0,,Europe/Madrid,1,0,
1298,48071001,EL CRUCERO (1298),,43.3221447999564,-3.11625376717447,3,,0,,Europe/Madrid,1,0,
1299,48071018,ITURRIZAR (1299),,43.3235173272214,-3.1229242904511,3,,0,,Europe/Madrid,1,0,
1300,48071019,OYANCAS (1300),,43.3258674371493,-3.12300291012054,3,,0,,Europe/Madrid,0,0,
1301,48071020,SAN JULIÁN (1301),,43.3330540025239,-3.11330911606206,3,,0,,Europe/Madrid,1,0,
1303,48071035,COBARON (1303),,43.345377274615,-3.14694570736136,3,,0,,Europe/Madrid,0,0,
1304,48071021,POBEÑA (1304),,43.3452062069734,-3.12578295365353,3,,0,,Europe/Madrid,1,0,
1306,48022072,EL PEÑÓN (1306),,43.2172772183173,-3.41472234029077,5,,0,,Europe/Madrid,0,0,
1307,48022073,EL PEÑÓN (1307),,43.2174006011609,-3.4154619059249,5,,0,,Europe/Madrid,0,0,
1309,48913016,LA CUESTA (Cardeo) (1309),,43.3450065086729,-3.08880315885435,3,,0,,Europe/Madrid,1,0,
1310,48913017,SAN ROQUE (1310),,43.3432873569473,-3.08787533396425,3,,0,,Europe/Madrid,1,0,
1311,48002045,LOS HEROS (1311),,43.3289261967834,-3.07339862908256,3,,0,,Europe/Madrid,1,0,
1312,48002022,SANFUENTES 73 (1312),,43.3262515230426,-3.07388889757379,3,,0,,Europe/Madrid,0,0,
1314,48002046,SANFUENTES 1 (1314),,43.3234345746697,-3.07155443889623,3,,0,,Europe/Madrid,1,0,
1315,48008028,GELTOKIA/LA ESTACIÓN (1315),,43.2332245292724,-3.20037093248863,4,,0,,Europe/Madrid,1,0,
1316,48008025,TRAVESEDO (1316),,43.2346688711824,-3.2050042549286,4,,0,,Europe/Madrid,0,0,
1317,48008021,HELECHOSA (1317),,43.2425662942569,-3.20976055296925,4,,0,,Europe/Madrid,1,0,
1318,48008001,TRASLAVIÑA (1318),,43.2414295380517,-3.21432835783619,4,,0,,Europe/Madrid,1,0,
1319,48008030,PUENTE ROLANTE (1319),,43.2399740966711,-3.21734085183621,4,,0,,Europe/Madrid,1,0,
1320,48008003,LA VIA (1320),,43.2443191252839,-3.2210126517726,4,,0,,Europe/Madrid,0,0,
1321,48082025,PARKEA / PARQUE (ARKUPEAK/SOPORTALES) (1321),,43.3283236464893,-3.03213868071393,2,,0,,Europe/Madrid,0,0,
1322,48008023,LA COLORADA (SAN MIGUEL) (1322),,43.248948410828,-3.22056116172401,4,,0,,Europe/Madrid,0,0,
1323,48008005,SAN MIGUEL (1323),,43.2510814190528,-3.22108625466788,4,,0,,Europe/Madrid,0,0,
1324,48008007,LA TOBA (1324),,43.2543883292086,-3.22458466992979,4,,0,,Europe/Madrid,0,0,
1325,48008009,LA TEJERA (1325),,43.2568126677279,-3.23260177381113,4,,0,,Europe/Madrid,0,0,
1326,48008011,ALISEDO (1326),,43.2534226558507,-3.23468317401484,4,,0,,Europe/Madrid,0,0,
1327,48008013,LA CABAREDA (1327),,43.2513789819502,-3.23888855287757,4,,0,,Europe/Madrid,0,0,
1328,48008015,TRASLOSHEROS (1328),,43.2477661321014,-3.23987233800347,4,,0,,Europe/Madrid,0,0,
1329,48008017,EL PESO (1329),,43.2423812499178,-3.23848572574781,4,,0,,Europe/Madrid,0,0,
1330,48008019,LAURETA (1330),,43.2431014640128,-3.25261492888947,4,,0,,Europe/Madrid,0,0,
1331,39101001,LA MATANZA (1331),,43.2445862129892,-3.26113255564927,5,,0,,Europe/Madrid,0,0,
1332,39101002,PALACIO (1332),,43.2563129267434,-3.26388061769661,5,,0,,Europe/Madrid,0,0,
1333,48087001,LA PUENTE (1333),,43.269849726248,-3.2573235060975,5,,0,,Europe/Madrid,0,0,
1334,39101003,PALACIO (1334),,43.2561775736356,-3.26400323303164,5,,0,,Europe/Madrid,0,0,
1335,39101004,LA MATANZA (1335),,43.2446850105969,-3.2612438366181,5,,0,,Europe/Madrid,0,0,
1336,39101005,LA LLANA (1336),,43.2441384330814,-3.26402526806362,5,,0,,Europe/Madrid,0,0,
1337,39101006,HENALES (1337),,43.2485790041445,-3.25946198452285,5,,0,,Europe/Madrid,0,0,
1338,39101007,VILLANUEVA (1338),,43.2485687262708,-3.27548836182859,5,,0,,Europe/Madrid,0,0,
1339,48022001,EL SUCESO (1339),,43.2433021508293,-3.30369594832579,5,,0,,Europe/Madrid,0,0,
1341,48022003,LAS TORCACHAS (1341),,43.2386735661149,-3.31563383263347,5,,0,,Europe/Madrid,0,0,
1342,48022069,HERBOSO (1342),,43.2408173682734,-3.32335317215798,5,,0,,Europe/Madrid,0,0,
1343,48022067,EL CERRILLO (1343),,43.2375142013547,-3.3260082006022,5,,0,,Europe/Madrid,0,0,
1344,48022025,MANZANEDA (1344),,43.2364391741066,-3.3303868416029,5,,0,,Europe/Madrid,0,0,
1345,48022004,EL CALLEJO (1345),,43.233475514464,-3.34309227029946,5,,0,,Europe/Madrid,0,0,
1346,48022065,EL CALLEJO 3 (1346),,43.2334435773459,-3.34773487116242,5,,0,,Europe/Madrid,0,0,
1347,48022016,AMBASAGUAS (1347),,43.238032883082,-3.3575030509221,5,,0,,Europe/Madrid,1,0,
1348,48022040,CONCHA (1348),,43.2249671434202,-3.36045561011357,5,,0,,Europe/Madrid,1,0,
1349,48002025,SANFUENTES 2 (1349),,43.3235516880902,-3.07146824119417,3,,0,,Europe/Madrid,1,0,
1351,48002039,SANFUENTES 70 (1351),,43.3262876368316,-3.07374093158603,3,,0,,Europe/Madrid,1,0,
1352,48002040,LOS HEROS (1352),,43.3293407693971,-3.07283172912175,3,,0,,Europe/Madrid,0,0,
1353,48913018,SAN ROQUE (1353),,43.3421623841395,-3.0870964577543,3,,0,,Europe/Madrid,0,0,
1355,48022041,SOSCAÑO (1355),,43.2237241830331,-3.36622316471162,5,,0,,Europe/Madrid,0,0,
1356,48022063,LAS CALLEJUELAS (1356),,43.223539827209,-3.36755190809287,5,,0,,Europe/Madrid,0,0,
1357,48022050,TRESPALACIO (1357),,43.2278993837132,-3.37272534526668,5,,0,,Europe/Madrid,0,0,
1359,48022051,LLANO (1359),,43.2297350801335,-3.37586445044779,5,,0,,Europe/Madrid,0,0,
1360,48022019,OTIDES (1360),,43.2260720455704,-3.38076738312876,5,,0,,Europe/Madrid,0,0,
1361,48022052,SAN CIPRIÁN (1361),,43.2219420121651,-3.39317763823972,5,,0,,Europe/Madrid,0,0,
1362,48071032,SAN JULIÁN (1362),,43.3332071775377,-3.11321071646851,3,,0,,Europe/Madrid,1,0,
1363,48071033,OYANCAS (1363),,43.3256493227581,-3.12319216720907,3,,0,,Europe/Madrid,0,0,
1364,48071034,ITURRIZAR (1364),,43.3231030512126,-3.122985122691,3,,0,,Europe/Madrid,1,0,
1365,48071015,EL CRUCERO (1365),,43.3221292340508,-3.11562005231091,3,,0,,Europe/Madrid,1,0,
1366,48071017,SOMORROSTRO IKASTETXEA (1366),,43.3220041762155,-3.12327890480113,3,,0,,Europe/Madrid,0,0,
1367,48022053,TRETO (1367),,43.2230492551276,-3.40618734767276,5,,0,,Europe/Madrid,0,0,
1368,48022062,UBAL MENDATEA/PUERTO UBAL (1368),,43.2180261710444,-3.41079585777941,5,,0,,Europe/Madrid,0,0,
1369,48022020,SANGRICES (1369),,43.2145941006111,-3.42594094789173,5,,0,,Europe/Madrid,0,0,
1370,48022071,SANDELOLLA (1370),,43.2191517472597,-3.43044211266837,5,,0,,Europe/Madrid,0,0,
1371,48051001,LANESTOSA (1371),,43.2203182822163,-3.43867523094951,5,,0,,Europe/Madrid,0,0,
1372,48022070,SANDELOLLA (1372),,43.2187817291056,-3.43066113360291,5,,0,,Europe/Madrid,0,0,
1373,48022021,SANGRICES (1373),,43.2144153392669,-3.42558266863063,5,,0,,Europe/Madrid,0,0,
1374,48022061,UBAL MENDATEA/PUERTO UBAL (1374),,43.2174766303638,-3.41086604171126,5,,0,,Europe/Madrid,0,0,
1375,48083013,GELTOKIA / ESTACIÓN (1375),,43.3118606940968,-3.06101023645948,2,,0,,Europe/Madrid,1,0,
1376,48022054,TRETO (1376),,43.2224903632111,-3.40635602178446,5,,0,,Europe/Madrid,0,0,
1377,48022055,SAN CIPRIÁN (1377),,43.2219879231682,-3.39291935853367,5,,0,,Europe/Madrid,0,0,
1378,48022022,OTIDES (1378),,43.2257562309484,-3.38096243893102,5,,0,,Europe/Madrid,0,0,
1379,48022056,LLANO (1379),,43.2293275678004,-3.37656387639276,5,,0,,Europe/Madrid,0,0,
1380,48022057,TRESPALACIOS (1380),,43.2279167908412,-3.37291016549923,5,,0,,Europe/Madrid,0,0,
1381,48022042,SOSCAÑO (1381),,43.222585118161,-3.36764467834263,5,,0,,Europe/Madrid,0,0,
1382,48080006,ZABALLA (1382),,43.2977991168093,-3.02778362385927,2,,0,,Europe/Madrid,1,0,
1383,48080007,UGARTE (1383),,43.2917546400217,-3.01625756028783,2,,0,,Europe/Madrid,1,0,
1384,48022015,CONCHA (1384),,43.2250304468666,-3.36036978720751,5,,0,,Europe/Madrid,1,0,
1385,48022017,AMBASAGUAS (1385),,43.2380248403484,-3.35719509603448,5,,0,,Europe/Madrid,1,0,
1386,48022064,EL CALLEJO 2 (1386),,43.2334056107643,-3.34837505532601,5,,0,,Europe/Madrid,0,0,
1387,48022011,EL CALLEJO (1387),,43.2332856797537,-3.34333751260277,5,,0,,Europe/Madrid,0,0,
1388,48022026,MANZANEDA (1388),,43.2357378842564,-3.33001357719912,5,,0,,Europe/Madrid,0,0,
1389,48022066,EL CERRILLO (1389),,43.2376497611353,-3.32583649591618,5,,0,,Europe/Madrid,0,0,
1390,48022068,HERBOSO (1390),,43.2406656473721,-3.32287201267637,5,,0,,Europe/Madrid,0,0,
1391,48022012,LAS TORCACHAS (1391),,43.2381782039555,-3.31716884872282,5,,0,,Europe/Madrid,0,0,
1392,48022014,EL SUCESO (1392),,43.2432574875412,-3.30356023536635,5,,0,,Europe/Madrid,0,0,
1393,39101008,VILLANUEVA (1393),,43.2488112270342,-3.27574814310561,5,,0,,Europe/Madrid,0,0,
1394,39101009,HENALES (1394),,43.2484524924718,-3.25965854229669,5,,0,,Europe/Madrid,0,0,
1395,39101010,LA LLANA (1395),,43.2441020165195,-3.26419755643711,5,,0,,Europe/Madrid,0,0,
1398,48008020,LAURETA (1398),,43.2429029814773,-3.25278655107479,4,,0,,Europe/Madrid,0,0,
1399,48008018,EL PESO (1399),,43.2428225281044,-3.2384628124327,4,,0,,Europe/Madrid,0,0,
1400,48008016,TRASLOSHEROS (1400),,43.2478203664153,-3.23977400444794,4,,0,,Europe/Madrid,0,0,
1401,48008014,LA CABAREDA (1401),,43.2513612299051,-3.23876529339407,4,,0,,Europe/Madrid,0,0,
1402,48008012,ALISEDO (1402),,43.2533145894171,-3.23473203667,4,,0,,Europe/Madrid,0,0,
1403,48008010,LA TEJERA (1403),,43.2566959083,-3.2324534883636,4,,0,,Europe/Madrid,0,0,
1404,48008008,LA TOBA (1404),,43.2542977263822,-3.22486768785006,4,,0,,Europe/Madrid,0,0,
1405,48008006,SAN MIGUEL (1405),,43.250838336551,-3.22111001322873,4,,0,,Europe/Madrid,0,0,
1406,48008024,LA COLORADA (SAN MIGUEL) (1406),,43.2490112056696,-3.22068457367869,4,,0,,Europe/Madrid,0,0,
1407,48008004,LA VIA (1407),,43.2441570893965,-3.22098743088889,4,,0,,Europe/Madrid,0,0,
1408,48008031,PUENTE ROLANTE (1408),,43.2398661578926,-3.21727888469905,4,,0,,Europe/Madrid,0,0,
1409,48008002,TRASLAVIÑA (1409),,43.2413426559967,-3.21412888751207,4,,0,,Europe/Madrid,1,0,
1410,48008022,HELECHOSA (1410),,43.2426803105071,-3.20994779700656,4,,0,,Europe/Madrid,1,0,
1412,48013008,SAN IGNACIO (1412),,43.2838708774871,-2.99081744693454,2,,0,,Europe/Madrid,1,0,
1413,48008026,TRAVESEDO (1413),,43.2346055294444,-3.20517646151055,4,,0,,Europe/Madrid,0,0,
1414,48008029,GELTOKIA / LA ESTACIÓN (1414),,43.2331514766773,-3.20094951430985,4,,0,,Europe/Madrid,1,0,
1415,48086028,LA HERBOSA (1415),,43.2269722549349,-3.19160744161196,3,,0,,Europe/Madrid,1,0,
1416,48080008,UGARTE (1416),,43.2918312093093,-3.01604555315333,2,,0,,Europe/Madrid,1,0,
1417,48080001,ZABALLA (1417),,43.2979251844694,-3.0277713528453,2,,0,,Europe/Madrid,1,0,
1418,48086029,EL MAZO (1418),,43.222270439214,-3.1813851119672,3,,0,,Europe/Madrid,1,0,
1419,48086031,MALABRIGO (1419),,43.2167402699461,-3.17643159110394,3,,0,,Europe/Madrid,1,0,
1420,48096038,RETOLA (1420),,43.2218157960375,-3.17259223731768,3,,0,,Europe/Madrid,1,0,
1423,48083011,UDALETXEA/AYUNTAMIENTO (1423),,43.3104669446982,-3.05721091060978,2,,0,,Europe/Madrid,1,0,
1424,48083012,GELTOKIA / ESTACIÓN (1424),,43.3119508254176,-3.06085002040386,2,,0,,Europe/Madrid,0,0,
1456,48902088,LA AVANZADA 26 (1456),,43.3131044892789,-2.96519538190664,2,,0,,Europe/Madrid,0,0,
1463,48044050,ZUGAZARTE (TRIÁNGULO) (1463),,43.3370069850242,-3.00964699963164,2,,0,,Europe/Madrid,1,0,
1464,48044051,ZUGAZARTE 35 (REPARADORAS) (1464),,43.331469921077,-3.01224342205108,2,,0,,Europe/Madrid,1,0,
1467,48044074,MAYOR KALEA 28 (METRO) (1467),,43.3267128719324,-3.01161477746497,2,,0,,Europe/Madrid,1,0,
1468,48044075,KRESALTXU 16 (1468),,43.3290931003232,-3.00641368171691,2,,0,,Europe/Madrid,1,0,
1470,48054067,GOBELAURRE (1470),,43.3318486370241,-3.00306605534736,2,,0,,Europe/Madrid,1,0,
1471,48044089,GOBELAURRE 45 (1471),,43.3320107137553,-3.00326342838639,2,,0,,Europe/Madrid,1,0,
1473,48044068,GORBEIA MENDIA (1473),,43.3294172680324,-3.0063568524876,2,,0,,Europe/Madrid,1,0,
1474,48044069,LAS MERCEDES (APARKALEKUA/APARCAMIENTO) (1474),,43.3280392343721,-3.01172480724886,2,,0,,Europe/Madrid,1,0,
1476,48044052,AREETA 9 (ELIZA/IGLESIA) (1476),,43.326742094675,-3.0157331854981,2,,0,,Europe/Madrid,1,0,
1479,48044036,ZUGAZARTE 2 (MARÍTIMO) (1479),,43.3274985733975,-3.01503032038173,2,,0,,Europe/Madrid,0,0,
1480,48044037,ZUGAZARTE 38 (REPARADORAS) (1480),,43.3317941384901,-3.01173774145667,2,,0,,Europe/Madrid,0,0,
1481,48044038,ZUGAZARTE 54 (TRIÁNGULO) (1481),,43.3358913101708,-3.00976463268512,2,,0,,Europe/Madrid,1,0,
1493,48080012,BABCOCK (1493),,43.2991421049763,-3.01507794974486,2,,0,,Europe/Madrid,1,0,
1498,48071041,LA ARENA (1498),,43.3469001818513,-3.11442557458961,3,,0,,Europe/Madrid,0,0,
1511,48020117,ZORROTZA (1511),,43.2756826056391,-2.97204934532492,1,,0,,Europe/Madrid,0,0,
1512,48020118,ZORROTZA-KASTREXANA (FLEX) (1512),,43.27127990646,-2.97452828984936,1,,0,,Europe/Madrid,1,0,
1513,48020119,KASTREXANA INDUSTRIALDEA (1513),,43.2613297669349,-2.97155912816298,1,,0,,Europe/Madrid,1,0,
1514,48020120,KASTREXANA (1514),,43.2580606265414,-2.96983579832675,1,,0,,Europe/Madrid,0,0,
1515,48020121,LAS DELICIAS (1515),,43.2551257672755,-2.97248599868013,1,,0,,Europe/Madrid,1,0,
1517,48020166,IBERDROLA (1517),,43.247059450213,-2.98086621772356,1,,0,,Europe/Madrid,0,0,
1518,48912001,LASAO (1518),,43.2454386013946,-2.987324959784,2,,0,,Europe/Madrid,1,0,
1519,48912002,LOIBE (1519),,43.2442413284418,-2.99105743538411,2,,0,,Europe/Madrid,0,0,
1520,48912009,ALDANONDO (ELKARTEGIA) (1520),,43.2414781074244,-2.99484803459893,2,,0,,Europe/Madrid,0,0,
1521,48912010,KORTATXU (1521),,43.2380644374073,-3.00149027687785,2,,0,,Europe/Madrid,0,0,
1522,48912003,ARBUIO (1522),,43.2362464210464,-3.00747246949851,2,,0,,Europe/Madrid,1,0,
1523,48912004,NUESTRA SEÑORA DE LA GUÍA (1523),,43.2355706657728,-3.01215252760949,2,,0,,Europe/Madrid,1,0,
1524,48045001,ZARAMILLO (1524),,43.2329590259406,-3.01447960220248,3,,0,,Europe/Madrid,1,0,
1525,48045022,LAZKAO (KILÓMETRO 11) (1525),,43.2292490151107,-3.01564873056665,3,,0,,Europe/Madrid,0,0,
1526,48045002,LA CUADRA (1526),,43.2242049462589,-3.02429167369978,3,,0,,Europe/Madrid,0,0,
1527,48045003,LAKABEX (IBERDROLA) (1527),,43.2182517920701,-3.02869737766194,3,,0,,Europe/Madrid,0,0,
1528,48045023,OLABARRIETA (LAS JARRETAS) (1528),,43.2095404855224,-3.04139807548599,3,,0,,Europe/Madrid,0,0,
1529,48045024,IORGI (1529),,43.2059621414447,-3.04640823764481,3,,0,,Europe/Madrid,1,0,
1530,48045009,GALLARRAGA  (FARMAZIA) (1530),,43.2017305718312,-3.04869229348113,3,,0,,Europe/Madrid,1,0,
1531,48045010,SODUPE (HERRIKO ENPARANTZA) (1531),,43.2001188245379,-3.04844003734389,3,,0,,Europe/Madrid,0,0,
1532,48045011,PADURA (1532),,43.1950765126653,-3.04778866450331,3,,0,,Europe/Madrid,0,0,
1533,48042003,UGARTE (1533),,43.191581612432,-3.04616350758058,3,,0,,Europe/Madrid,1,0,
1534,48042023,AZKARAI (1534),,43.1882473765512,-3.04534311701989,3,,0,,Europe/Madrid,0,0,
1535,48042027,ETXEBARRRIA (1535),,43.178475518093,-3.03718314361903,3,,0,,Europe/Madrid,0,0,
1536,48042024,ZALDU (PILOTALEKUA/FRONTÓN) (1536),,43.1763294579875,-3.03192806620918,3,,0,,Europe/Madrid,0,0,
1537,48042036,ZABAIA BEKOA (1537),,43.1738674069976,-3.02905516322468,3,,0,,Europe/Madrid,0,0,
1538,48042028,ISUSKITZA (HIPIKA) (1538),,43.1695992307351,-3.0286263637868,3,,0,,Europe/Madrid,0,0,
1539,01042001,PADURA (HÍPIKA) (1539),,43.1627832494651,-3.02579402717937,4,,0,,Europe/Madrid,0,0,
1541,01042003,IRABIEN (EGOITZA/RESIDENCIA) (1541),,43.1591886263471,-3.02611392670077,4,,0,,Europe/Madrid,0,0,
1542,01042004,IRABIEN (VITAL KUTXA) (1542),,43.1552550337954,-3.02692255557857,4,,0,,Europe/Madrid,0,0,
1543,01042005,ARENALDE (MALKUARTU) (1543),,43.1536159311131,-3.02784428849962,4,,0,,Europe/Madrid,0,0,
1544,01042006,VILLA CHICA (ELIZA/IGLESIA) (1544),,43.1506434913135,-3.03110223612152,4,,0,,Europe/Madrid,0,0,
1545,01010007,MENAGARAI (1545),,43.0965414094427,-3.07311469921028,4,,0,,Europe/Madrid,0,0,
1546,01010001,ARRESPALDITZA/RESPALDIZA (1546),,43.0767048770278,-3.04402735531653,4,,0,,Europe/Madrid,0,0,
1547,01010019,KEXAA (1547),,43.0831612697579,-3.05012387140029,4,,0,,Europe/Madrid,0,0,
1548,01042012,VILLA CHICA (ELIZA/IGLESIA) (1548),,43.1504093751964,-3.03106522124297,4,,0,,Europe/Madrid,0,0,
1549,01042007,ARENALDE (MALKUARTU) (1549),,43.153453864785,-3.02775811958962,4,,0,,Europe/Madrid,0,0,
1550,01042008,IRABIEN (VITAL KUTXA) (1550),,43.1551560266419,-3.02672571732022,4,,0,,Europe/Madrid,0,0,
1551,01042009,IRABIEN (EGOITZA/RESIDENCIA) (1551),,43.1588824870504,-3.02600309252924,4,,0,,Europe/Madrid,0,0,
1553,01042011,PADURA (HÍPIKA) (1553),,43.162981386204,-3.02565879684688,4,,0,,Europe/Madrid,0,0,
1554,48042029,ISUSKIZA (HIPIKA) (1554),,43.1692195682021,-3.02797587653427,3,,0,,Europe/Madrid,0,0,
1555,48042039,ZABAIA BEKOA (1555),,43.1739934865793,-3.02900723952337,3,,0,,Europe/Madrid,0,0,
1556,48042025,ZALDU (PILOTALEKUA/FRONTÓN) (1556),,43.176712179924,-3.03186551520511,3,,0,,Europe/Madrid,0,0,
1557,48042030,ETXEBARRIA (1557),,43.1786286213812,-3.03711679284184,3,,0,,Europe/Madrid,0,0,
1558,48042026,AZKARAI (1558),,43.1881799267413,-3.04512524552627,3,,0,,Europe/Madrid,0,0,
1559,48042017,UGARTE (1559),,43.1919150115917,-3.04560994144665,3,,0,,Europe/Madrid,1,0,
1560,48045028,PADURA (1560),,43.1947597208036,-3.04758127997513,3,,0,,Europe/Madrid,0,0,
1561,48045012,SODUPE (HERRIKO ENPARANTZA) (1561),,43.2002899807498,-3.04828508266091,3,,0,,Europe/Madrid,1,0,
1562,48045013,GALLARRAGA (FARMAZIA) (1562),,43.2022346810965,-3.04906196821295,3,,0,,Europe/Madrid,1,0,
1563,48045025,IORGI (1563),,43.2067909894214,-3.04538713233702,3,,0,,Europe/Madrid,1,0,
1564,48045026,OLABARRIETA (LAS JARRETAS) (1564),,43.2097387099719,-3.04106582235672,3,,0,,Europe/Madrid,0,0,
1565,48045008,LAKABEX (IBERDROLA) (1565),,43.2180176315452,-3.02884501547595,3,,0,,Europe/Madrid,0,0,
1566,48045021,LA CUADRA (1566),,43.2231602938261,-3.0247716022103,3,,0,,Europe/Madrid,0,0,
1567,48045027,LAZKAO (KILÓMETRO 11) (1567),,43.2291679976746,-3.01546399164461,3,,0,,Europe/Madrid,0,0,
1568,48045020,ZARAMILLO (1568),,43.2332471676723,-3.01455356262479,3,,0,,Europe/Madrid,1,0,
1569,48912005,NUESTRA SEÑORA DE LA GUÍA (1569),,43.2354626065328,-3.01217713776433,2,,0,,Europe/Madrid,0,0,
1570,48912006,ARBUIO (1570),,43.2361924101192,-3.00720151176132,2,,0,,Europe/Madrid,0,0,
1571,48912011,KORTATXU (1571),,43.2381184704979,-3.0010592059896,2,,0,,Europe/Madrid,0,0,
1572,48912012,ALDANONDO (ELKARTEGIA) (1572),,43.2413970611261,-2.99476182236414,2,,0,,Europe/Madrid,0,0,
1573,48912007,LOIBE (1573),,43.2435310014865,-2.99178069612552,2,,0,,Europe/Madrid,0,0,
1574,48912008,LASAO (1574),,43.2453584119617,-2.98690259880179,2,,0,,Europe/Madrid,1,0,
1575,48020167,IBERDROLA (1575),,43.2466093757793,-2.98185180332947,1,,0,,Europe/Madrid,0,0,
1577,48020122,LAS DELICIAS (1577),,43.2550986215547,-2.97194394101689,1,,0,,Europe/Madrid,1,0,
1578,48020123,KASTREXANA (1578),,43.2569262131951,-2.97051396590244,1,,0,,Europe/Madrid,0,0,
1579,48020168,KASTREXANA INDUSTRIALDEA (1579),,43.2614460807174,-2.97145212730875,1,,0,,Europe/Madrid,1,0,
1580,48020124,ZORROTZA-KASTREXANA 81 (FLEX) (1580),,43.2721892914644,-2.97414589087955,1,,0,,Europe/Madrid,1,0,
1581,48020125,ZORROTZA (1581),,43.2750170599799,-2.97274779248766,1,,0,,Europe/Madrid,1,0,
1611,48042001,ZUBIETE 93 (ISASI) (1611),,43.1878783144608,-3.05546251323221,3,,0,,Europe/Madrid,1,0,
1612,48042002,ZUBIETE 79 (TXELUS) (1612),,43.1866165237376,-3.05772567283956,3,,0,,Europe/Madrid,1,0,
1613,48042031,SAN JOSÉ (ZAHAR-EGOITZA/ASILO) (1613),,43.1830815317882,-3.06395053602728,3,,0,,Europe/Madrid,1,0,
1614,48042004,ZUBIETE 15 (LA INDUSTRIA) (1614),,43.1805727054756,-3.0689101872094,3,,0,,Europe/Madrid,1,0,
1615,48042005,MOLINAR PLAZA (1615),,43.1798362325734,-3.07321117962232,3,,0,,Europe/Madrid,0,0,
1616,48042019,SANDAMENDI (1616),,43.1782839337306,-3.07844973288969,3,,0,,Europe/Madrid,1,0,
1617,48042032,SANDAMENDI (PONTÓN) (1617),,43.1789096740628,-3.08501003134904,3,,0,,Europe/Madrid,0,0,
1618,48042006,PONTÓN URARTE (1618),,43.1765539339312,-3.0894867611035,3,,0,,Europe/Madrid,1,0,
1619,48042020,ALLENDE (1619),,43.1676837925861,-3.10079182363338,3,,0,,Europe/Madrid,0,0,
1620,48042033,LAS LLANAS (ERMITA) (1620),,43.1635693725042,-3.10244119171267,3,,0,,Europe/Madrid,0,0,
1621,48042007,LAS LLANAS (PLAZA) (1621),,43.1611437016125,-3.10368407866759,3,,0,,Europe/Madrid,1,0,
1622,48042034,MAZUKERA (1622),,43.1581636644457,-3.10552949348122,3,,0,,Europe/Madrid,0,0,
1623,48042035,LARGATXA (1623),,43.1541872420832,-3.1063763579952,3,,0,,Europe/Madrid,0,0,
1624,48042008,ARTEKONA (1624),,43.1504191318555,-3.10592460916453,3,,0,,Europe/Madrid,0,0,
1625,48042037,ALBITXU (1625),,43.1438153471175,-3.10944637306839,3,,0,,Europe/Madrid,0,0,
1626,01004001,PUENTE LLANTENO (1626),,43.1404268167135,-3.10745084247062,4,,0,,Europe/Madrid,0,0,
1627,01004002,LA TORRE (1627),,43.1327557799828,-3.11563608621994,4,,0,,Europe/Madrid,0,0,
1628,01004003,GARAY 25 (GASOLINERA) (1628),,43.1235575669648,-3.12179014069843,4,,0,,Europe/Madrid,0,0,
1629,01004004,EL CANTÓN (1629),,43.1221845713626,-3.12572119834064,4,,0,,Europe/Madrid,0,0,
1630,01004005,PLAZA GARAY (JUNTO AL AYUNTAMIENTO) (1630),,43.1220825249044,-3.13056457219815,4,,0,,Europe/Madrid,0,0,
1632,01004006,EL CANTÓN (1632),,43.1220856797073,-3.12557347929886,4,,0,,Europe/Madrid,0,0,
1633,01004007,GARAY (GASOLINERA) (1633),,43.1233257011854,-3.12194961651972,4,,0,,Europe/Madrid,0,0,
1634,01004008,LA TORRE (1634),,43.1326794459687,-3.11543061309919,4,,0,,Europe/Madrid,0,0,
1635,01004009,PUENTE LLANTENO (1635),,43.1402424502121,-3.10720212661245,4,,0,,Europe/Madrid,0,0,
1636,48042038,ALBITXU (1636),,43.143975292407,-3.10923809395193,3,,0,,Europe/Madrid,0,0,
1637,48042009,ARTEKONA (1637),,43.1502031829714,-3.10574344565047,3,,0,,Europe/Madrid,0,0,
1638,48042040,LARGATXA (1638),,43.1542684797691,-3.10616740747792,3,,0,,Europe/Madrid,0,0,
1639,48042041,MAZUKERA (1639),,43.1580016286215,-3.10547386353598,3,,0,,Europe/Madrid,0,0,
1640,48042010,LAS LLANAS (PLAZA) (1640),,43.1610650995099,-3.10347397009426,3,,0,,Europe/Madrid,1,0,
1641,48042042,LAS LLANAS (ERMITA) (1641),,43.1637294679068,-3.10215077728609,3,,0,,Europe/Madrid,0,0,
1642,48042011,ALLENDE (1642),,43.1677739922962,-3.10061974107013,3,,0,,Europe/Madrid,0,0,
1643,48042012,PONTÓN URARTE (1643),,43.1763218619243,-3.08950979967706,3,,0,,Europe/Madrid,0,0,
1644,48042043,SANDAMENDI (PONTÓN) (1644),,43.1787926436759,-3.08496680353385,3,,0,,Europe/Madrid,0,0,
1645,48042013,SANDAMENDI (1645),,43.1779410541965,-3.07945947256005,3,,0,,Europe/Madrid,1,0,
1646,48042014,MOLINAR PLAZA (1646),,43.1796649283194,-3.07354319895112,3,,0,,Europe/Madrid,1,0,
1647,48042015,ZUBIETA 10 (LA INDUSTRIA) (1647),,43.1805683244399,-3.06870838398766,3,,0,,Europe/Madrid,0,0,
1648,48042044,SAN JOSÉ (ZAHAR-EGOITZA/ASILO) (1648),,43.1830095895832,-3.0637781872342,3,,0,,Europe/Madrid,0,0,
1649,48042016,ZUBIETE  (TXELUS) (1649),,43.1863462929389,-3.05789770129166,3,,0,,Europe/Madrid,0,0,
1650,48042018,ZUBIETE 56 (ISASI) (1650),,43.1881488196465,-3.05471195097469,3,,0,,Europe/Madrid,1,0,
1677,48071009,LA CENDEJA (1677),,43.321780564004,-3.1201750410566,3,,0,,Europe/Madrid,1,0,
1678,48071003,LAS LLANAS (1678),,43.3236377552612,-3.12814165002531,3,,0,,Europe/Madrid,0,0,
1679,48071004,LAS DUCHAS (1679),,43.3286848332794,-3.13208688317442,3,,0,,Europe/Madrid,0,0,
1680,48071005,LA CADENA (1680),,43.3305721850534,-3.13517472614726,3,,0,,Europe/Madrid,0,0,
1681,48071006,LA RIGADA (1681),,43.3357939714363,-3.14327864598521,3,,0,,Europe/Madrid,0,0,
1682,48071007,EL HAYA (1682),,43.3385576428842,-3.15084749717538,3,,0,,Europe/Madrid,0,0,
1707,48071010,EL HAYA (1707),,43.338507813512,-3.15107806857648,3,,0,,Europe/Madrid,0,0,
1708,48071011,LA RIGADA (1708),,43.3358741913338,-3.14393264709719,3,,0,,Europe/Madrid,0,0,
1709,48071012,LA CADENA (1709),,43.3305269435214,-3.13535965085983,3,,0,,Europe/Madrid,0,0,
1710,48071013,LAS DUCHAS (1710),,43.327847524218,-3.13198639315356,3,,0,,Europe/Madrid,0,0,
1711,48071014,LAS LLANAS (1711),,43.3236012803324,-3.12854858222484,3,,0,,Europe/Madrid,0,0,
1712,48071024,LA CENDEJA (1712),,43.3219772047235,-3.12155675528186,3,,0,,Europe/Madrid,1,0,
1756,48020105,ERNESTO ERKOREKA PLAZA (UDALETXEA/AYUNTAMIENTO) (1756),,43.264125395209,-2.92259158192287,1,,0,,Europe/Madrid,1,0,
1757,48020106,ZUMALAKARREGI (PANERA) (1757),,43.2647349324567,-2.91858625305444,1,,0,,Europe/Madrid,1,0,
1759,48020108,ZUMALAKARREGI 56 (SANTUTXU) (1759),,43.2556975481798,-2.91094776504837,1,,0,,Europe/Madrid,0,0,
1760,48020097,IBARSUSI (1760),,43.2493159577714,-2.90312255392265,1,,0,,Europe/Madrid,0,0,
1767,48036004,PLAZAKOETXE (1767),,43.228742850271,-2.84816270937179,2,,0,,Europe/Madrid,1,0,
1768,48036005,ABUSU (1768),,43.2306472944951,-2.83134477558303,2,,0,,Europe/Madrid,1,0,
1769,48036006,OLABARRI (1769),,43.2316090240281,-2.82412563675584,2,,0,,Europe/Madrid,1,0,
1770,48036007,ASKARRI (1770),,43.2327837061449,-2.81527989469449,2,,0,,Europe/Madrid,0,0,
1771,48036008,ERLETXETA (ERMITA) (1771),,43.2361692055365,-2.80428383991506,2,,0,,Europe/Madrid,0,0,
1772,48036033,ERLETXETA INDUSTRIALDEA (1772),,43.2385524857524,-2.80318337511987,2,,0,,Europe/Madrid,0,0,
1773,48036030,ARTOLA (1773),,43.2452382504661,-2.80515376040304,2,,0,,Europe/Madrid,0,0,
1774,48052013,SARRIKOLA (1774),,43.2546992332168,-2.79835984601092,2,,0,,Europe/Madrid,0,0,
1775,48052020,ANDRA MARI (ELKARTEGI) (1775),,43.2589718534733,-2.79616883017037,2,,0,,Europe/Madrid,0,0,
1778,48052019,GOIKOLEXEA (1778),,43.2673030870895,-2.78463170467138,2,,0,,Europe/Madrid,0,0,
1782,48052021,ANDRA MARI (ELKARTEGIA) (1782),,43.2590088024882,-2.79633725209213,2,,0,,Europe/Madrid,1,0,
1783,48052014,SARRIKOLA (1783),,43.254631932921,-2.79849312050981,2,,0,,Europe/Madrid,1,0,
1784,48036031,ARTOLA (1784),,43.2455988348838,-2.80538665032765,2,,0,,Europe/Madrid,0,0,
1785,48036009,ERLETXETA (JATETXEA) (1785),,43.2364861969091,-2.80535431876354,2,,0,,Europe/Madrid,0,0,
1786,48036010,ASKARRI (1786),,43.2337443290954,-2.81350356658208,2,,0,,Europe/Madrid,0,0,
1787,48036011,OLABARRI (1787),,43.2320237734105,-2.82453084303832,2,,0,,Europe/Madrid,1,0,
1788,48036026,ABUSU (1788),,43.22977730118,-2.83371171334731,2,,0,,Europe/Madrid,1,0,
1789,48036012,ABUSU (1789),,43.2300365548455,-2.83309859762664,2,,0,,Europe/Madrid,0,0,
1790,48036013,PLAZAKOETXE (1790),,43.2288504648658,-2.84782995129744,2,,0,,Europe/Madrid,0,0,
1798,48020098,IBARSUSI (1798),,43.2505305823356,-2.9019380194001,1,,0,,Europe/Madrid,0,0,
1799,48020099,ZUMALAKARREGI (MAKUA PLAZA) (1799),,43.2571120356568,-2.91191899764837,1,,0,,Europe/Madrid,1,0,
1800,48046018,GELTOKIA/ESTACIÓN (1800),,43.3137138990758,-2.67673450204845,4,,0,,Europe/Madrid,1,0,
1801,48060027,MARKINA-XEMEIN (1801),,43.2670898261685,-2.50000949560492,5,,0,,Europe/Madrid,0,0,
1802,48910011,BIDEBARRIETA (1802),,43.1750849006762,-2.63678340971813,4,,0,,Europe/Madrid,1,0,
1803,48001001,MATIENA (SAN BLAS) (1803),,43.1694155173034,-2.60822140148195,4,,0,,Europe/Madrid,0,0,
1804,48058005,ZENGOTITA (1804),,43.1973516330914,-2.55517833815027,5,,0,,Europe/Madrid,0,0,
1805,48058006,TRABAKUA (1805),,43.2092702824958,-2.54738522736168,5,,0,,Europe/Madrid,0,0,
1806,48060019,ZUBIBARRI (1806),,43.2345359615494,-2.53138492727629,5,,0,,Europe/Madrid,0,0,
1808,48060005,AZPILTZA (1808),,43.2901938806289,-2.48680894818657,5,,0,,Europe/Madrid,1,0,
1809,48060018,PLAZAKOLA (1809),,43.297140323742,-2.47575375783917,5,,0,,Europe/Madrid,0,0,
1810,48018005,MILLOI GANE (1810),,43.3131852739384,-2.48141164675942,5,,0,,Europe/Madrid,0,0,
1811,48018007,AIERDI (1811),,43.3172050891557,-2.47828206011951,5,,0,,Europe/Madrid,0,0,
1812,48018008,ATXURRA (1812),,43.3250262953094,-2.49347211855608,5,,0,,Europe/Madrid,0,0,
1813,48004001,ZULUETA (1813),,43.3362846028838,-2.49815263509291,5,,0,,Europe/Madrid,0,0,
1814,48004006,OLETA (1814),,43.343690866449,-2.50539551488847,5,,0,,Europe/Madrid,1,0,
1815,48057004,LARROTEGI (1815),,43.3603608109603,-2.50659924530892,5,,0,,Europe/Madrid,1,0,
1817,48004005,OLETA (1817),,43.3437722244421,-2.5054688803334,5,,0,,Europe/Madrid,1,0,
1818,48004004,ZULUETA (1818),,43.3362137596262,-2.49842461331722,5,,0,,Europe/Madrid,0,0,
1819,48018009,ATXURRA (1819),,43.3249462402224,-2.49369479296054,5,,0,,Europe/Madrid,0,0,
1820,48018010,AIERDI (1820),,43.3170161693682,-2.47832067316647,5,,0,,Europe/Madrid,0,0,
1821,48018006,MILLOI GANE (1821),,43.3139798252595,-2.48188582391061,5,,0,,Europe/Madrid,0,0,
1822,48060015,PLAZAKOLA (1822),,43.2962489035571,-2.47576141591427,5,,0,,Europe/Madrid,0,0,
1823,48060010,AZPILTZA (1823),,43.2912004056849,-2.48696726990161,5,,0,,Europe/Madrid,0,0,
1825,48060020,ZUBIBARRI (1825),,43.2344380224699,-2.53165662052478,5,,0,,Europe/Madrid,0,0,
1826,48058009,TRABAKUA (1826),,43.2101737341333,-2.54586433074245,5,,0,,Europe/Madrid,0,0,
1827,48058010,ZENGOTITA (1827),,43.1975709389683,-2.55830301944616,5,,0,,Europe/Madrid,0,0,
1828,48001007,MATIENA (SAN BLAS) (1828),,43.1695680901022,-2.60807279574575,4,,0,,Europe/Madrid,1,0,
1829,48910010,BIDEBARRIETA (1829),,43.1752923587035,-2.6368929134672,4,,0,,Europe/Madrid,0,0,
1832,48916017,LABEAGA (1832),,43.2236958816792,-2.82032223035607,2,,0,,Europe/Madrid,0,0,
1833,48916019,OSPITALEA/HOSPITAL (1833),,43.2229388416665,-2.81911467298462,2,,0,,Europe/Madrid,1,0,
1834,48916021,LABEAGA (1834),,43.2250097920331,-2.81982582329728,2,,0,,Europe/Madrid,0,0,
1837,48036043,KORTEDERRA (1837),,43.2309639670191,-2.77907994482541,2,,0,,Europe/Madrid,0,0,
1838,48003019,GUMUZIO (1838),,43.2308128258266,-2.76716265075958,3,,0,,Europe/Madrid,0,0,
1839,48003002,BOROA (1839),,43.2285520084612,-2.75311792227251,3,,0,,Europe/Madrid,0,0,
1840,48003041,TANTORTA (1840),,43.2254765910556,-2.74356510014105,3,,0,,Europe/Madrid,1,0,
1841,48003003,SAN PEDRO  (GERALEKUA/APEADERO) (1841),,43.2216204545457,-2.73474051450021,3,,0,,Europe/Madrid,1,0,
1842,48003026,KATIA (1842),,43.2363173488644,-2.72382639847052,3,,0,,Europe/Madrid,1,0,
1844,48067001,ZUGASTIETA (1844),,43.2520353133977,-2.69328620472799,4,,0,,Europe/Madrid,1,0,
1845,48067002,ARIATZA (1845),,43.2709316698884,-2.68531758237646,4,,0,,Europe/Madrid,0,0,
1846,48067023,ASTELARRA (1846),,43.282134498776,-2.68586341425408,4,,0,,Europe/Madrid,0,0,
1847,48067003,KURTZERO (GELTOKIA/ESTACIÓN) (1847),,43.2871955612682,-2.68942800331504,4,,0,,Europe/Madrid,1,0,
