paradaID,proveedor,stopID,stopCode,nombre,descripcion,latitud,longitud,zona,municipio,locationType,accesible
EKI-1,Ekialdebus,801,,Oiartzun - Lanbarren Industrialdea,,43.32061897246799,-1.8671936965484162,1,Oiartzun,0,
EKI-2,Ekialdebus,1604,,Hondarribia - Itsasargi Kalea 3,,43.369383373769224,-1.7937606107157493,9,Hondarribia,0,
EKI-3,Ekialdebus,1605,,"Hondarribia - Bernat Etxepare, Correos",,43.36599558283523,-1.7927046254576002,9,Hondarribia,0,
EKI-4,Ekialdebus,1606,,Hondarribia - Sabin Arana Goiri Kalea 3 Parean,,43.361860834545126,-1.7899851784442424,9,Hondarribia,0,
EKI-5,Ekialdebus,1608,,Hondarribia - Amutea Auzoa 8,,43.35124333746972,-1.798401620190664,9,Hondarribia,0,
EKI-6,Ekialdebus,1001,,"Pasaia - Nafarroa Etorbidea, Pasai Antxo (renfe)",,43.31891850231326,-1.9175419620799106,1,Pasaia,0,
EKI-7,Ekialdebus,704,,Errenteria - Gamon Zumardia,,43.31282519653389,-1.8970938675056273,1,Errenteria,0,
EKI-8,Ekialdebus,705,,"Errenteria - Nafarroa Hiribidea 2, Gabierrota",,43.3106574674379,-1.8908196763756802,1,Errenteria,0,
EKI-9,Ekialdebus,802,,Oiartzun - Gi-636 Lintzirin,,43.313414454480856,-1.877143332490615,1,Oiartzun,0,
EKI-10,Ekialdebus,1401,,Lezo - Gaintxurizketa Gaina,,43.32997928678298,-1.8505158383912153,1,Lezo,0,
EKI-11,Ekialdebus,4,,"Donostia - Nafarroa Hiribidea 31, Jesuitak",,43.323287275284855,-1.9673777150593288,1,Donostia,0,
EKI-12,Ekialdebus,5,,"Donostia - Zurriola Pasealekua, Kursaal",,43.32471386109116,-1.9768258379997177,1,Donostia,0,
EKI-13,Ekialdebus,707,,Errenteria - Diputazio Plaza,,43.31495907228321,-1.9026908683136847,1,Errenteria,0,
EKI-14,Ekialdebus,708,,Errenteria - Kaputxinoak (biribilgunea),,43.317662737700516,-1.9123600386681574,1,Errenteria,0,
EKI-15,Ekialdebus,1002,,Pasaia - Oleta / Escalerillas,,43.32137346010632,-1.9315580192183772,1,Pasaia,0,
EKI-16,Ekialdebus,8,,"Donostia - Nafarroa Hiribidea 7, Okendo Kultur Etxea",,43.325492714214626,-1.9703004829618005,1,Donostia,0,
EKI-17,Ekialdebus,13,,Donostia - Mirakruz Gaina,,43.32140127990095,-1.950118744122049,1,Donostia,0,
EKI-18,Ekialdebus,14,,Donostia - Ategorrieta 65,,43.321961283054534,-1.9621462530989158,1,Donostia,0,
EKI-19,Ekialdebus,105,,Donostia - Buenavista Hiribidea 14 Parean,,43.320912799648276,-1.921810745368575,1,Donostia,0,
EKI-20,Ekialdebus,106,,"Donostia - Jose Elosegi Alkatearen Hiribidea, Herrera",,43.31992082684529,-1.9389831147785055,1,Donostia,0,
EKI-21,Ekialdebus,107,,"Donostia - Jose Elosegi Alkatearen Hiribidea 107 Parean, Gaiztarro",,43.320718748845614,-1.9434707345584772,1,Donostia,0,
EKI-22,Ekialdebus,109,,Donostia - Gipuzkoa Plaza 10,,43.32129166988961,-1.9818164810487937,1,Donostia,0,
EKI-23,Ekialdebus,1617,,Hondarribia - Foru Kalea 3,,43.37208946174641,-1.7942130468304602,9,Hondarribia,0,
EKI-24,Ekialdebus,724,,Errenteria - Lartzabal Auzoa 1 Parean,,43.31080650783253,-1.8848488221677788,1,Errenteria,0,
EKI-25,Ekialdebus,1632,,Hondarribia - Jaitzubia-bidasoa Ospitalea (donostirantz),,43.34431010183923,-1.816551343839748,9,Hondarribia,0,
EKI-26,Ekialdebus,1407,,Lezo - Errekalde Bailara,,43.32677703470468,-1.8571379706834237,1,Lezo,0,
EKI-27,Ekialdebus,1,,Donostia - Mirakruz Kalea 26,,43.32221794136212,-1.9736240958890077,1,Donostia,0,
EKI-28,Ekialdebus,2,,"Donostia - Jose Elosegi Alkatearen Hiribidea, Mirakruz Gaina",,43.321311353548204,-1.9481716763184493,1,Donostia,0,
EKI-29,Ekialdebus,3,,"Donostia - Jose Elosegi Alkatearen Hiribidea 128a, Herrera Euskotren",,43.31995920486696,-1.9382671480185172,1,Donostia,0,
EKI-30,Ekialdebus,1000,,Pasaia - Nafarroa Hiribidea 5,,43.31928783700205,-1.9185096801472556,1,Pasaia,0,
EKI-31,Ekialdebus,701,,Errenteria - Kaputxinoak,,43.31746346884393,-1.9112906894249058,1,Errenteria,0,
EKI-32,Ekialdebus,702,,Errenteria - Gamon Zumardia,,43.31264240309675,-1.8968135546826423,1,Errenteria,0,
EKI-33,Ekialdebus,703,,"Errenteria - Nafarroa Hiribidea (irunerantz), Gabierrota",,43.31051467436056,-1.8890959590120693,1,Errenteria,0,
EKI-34,Ekialdebus,800,,Oiartzun - Lintzirin Poligonoa 12,,43.3144784438379,-1.875458972551504,1,Oiartzun,0,
EKI-35,Ekialdebus,1602,,Hondarribia - Sabin Arana Goiri Kalea 3,,43.36173479944265,-1.789987683581053,9,Hondarribia,0,
EKI-36,Ekialdebus,1603,,"Hondarribia - Sabin Arana Goiri Kalea, Ama Guadalupekoa Ikastetxea",,43.3655686864057,-1.7923551764404733,9,Hondarribia,0,
EKI-37,Ekialdebus,1607,,Hondarribia - Aireportu Kanpoaldea,,43.356739518737506,-1.7944553727402015,9,Hondarribia,0,
EKI-38,Ekialdebus,803,,Oiartzun - Lanbarren Industrialdea,,43.319598633640915,-1.867816954783325,1,Oiartzun,0,
EKI-39,Ekialdebus,6,,"Donostia - Ategorrieta Hiribidea 64, Jai Alai",,43.32206338925769,-1.9664611247160513,1,Donostia,0,
EKI-40,Ekialdebus,7,,Donostia -  Oleta / Escalerillas,,43.32125158141718,-1.9310421692408037,1,Donostia,0,
EKI-41,Ekialdebus,706,,Errenteria - Lartzabal Auzoa 3,,43.31043077576116,-1.8841774984805524,1,Errenteria,0,
EKI-42,Ekialdebus,1009,,Pasaia - Nafarroa Etorbidea 24,,43.318180510120314,-1.9156805432452586,1,Pasaia,0,
EKI-43,Ekialdebus,718,,"Errenteria - Nafarroa Hiribidea 75, Iztieta",,43.31482296348122,-1.9025823323706748,1,Errenteria,0,
EKI-44,Ekialdebus,108,,Donostia - Jose Elosegi Alkatearen Hiribidea 111,,43.32051053949768,-1.9433510142160433,1,Donostia,0,
EKI-45,Ekialdebus,1612,,Hondarribia - Amutea Auzoa 8 Parean,,43.35119650983881,-1.7982297977317236,9,Hondarribia,0,
EKI-46,Ekialdebus,1516,,Hondarrbia - Jaitzubia-bidasoa Ospitalea (hondarribirantz),,43.34409429419638,-1.8165802117342074,9,Hondarrbia,0,
EKI-47,Ekialdebus,138,,"Donostia - Buenavista Hiribidea 14, Buenavista",,43.320777522352444,-1.921788471956086,1,Donostia,0,
EKI-48,Ekialdebus,141,,"Donostia - Jose Elosegi Alkatearen Hiribidea 5 Parean, Ategorrieta",,43.32170964752513,-1.959227592535043,1,Donostia,0,
EKI-49,Ekialdebus,1624,,"Hondarribia - Donostia Kalea 2, Madalengain",,43.368080553993956,-1.7957365388174222,9,Hondarribia,0,
EKI-50,Ekialdebus,1627,,"Hondarribia - Donostia Kalea 36, Sokoa",,43.371668061357084,-1.7969492392099027,9,Hondarribia,0,
EKI-51,Ekialdebus,1591,,Irun - Gaintxurizketa Gaina,,43.33013160661321,-1.848650414354024,9,Irun,0,
EKI-52,Ekialdebus,1408,,Lezo - Perrene Auzoa,,43.32741413234642,-1.8551155458030537,1,Lezo,0,
EKI-53,Ekialdebus,1601,,Hondarribia - Aireportua,,43.35696057142845,-1.7932169763186865,9,Hondarribia,0,
EKI-54,Ekialdebus,128,,"Donostia - Bizkaia Pasealekua 2, Mundaiz Zubia",,43.31091220201923,-1.9790920151163824,1,Donostia,0,
EKI-55,Ekialdebus,143,,Donostia - Maria Cristina Zubia,,43.31770837825577,-1.9788425754453525,1,Donostia,0,
EKI-56,Ekialdebus,145,,Donostia - Loiolako Erribera Pasealekua,,43.30924909801426,-1.9733614717617547,1,Donostia,0,
EKI-57,Ekialdebus,1633,,Hondarribia - Sabin Arana Goiri 8 Parean,,43.36463882781542,-1.791275208567144,9,Hondarribia,0,
EKI-58,Ekialdebus,1504,,"Irun - Letxunborro Hiribidea, Suhiltzaileak",,43.33018989306063,-1.823412345082884,9,Irun,0,
EKI-59,Ekialdebus,1611,,Hondarribia - Mendelu Kalea 24,,43.34724074281115,-1.801392408743617,9,Hondarribia,0,
EKI-60,Ekialdebus,1511,,Irun - Puiana Hiribidea 18,,43.340486167177644,-1.812492778965567,9,Irun,0,
EKI-61,Ekialdebus,1621,,Hondarribia - Minasoroeta-zumardia,,43.361312191561,-1.792600050924699,9,Hondarribia,0,
EKI-62,Ekialdebus,1518,,"Hondarribia - Zubieta Kalea 16, Gibeleta",,43.34422617741402,-1.8050172995016573,9,Hondarribia,0,
EKI-63,Ekialdebus,1520,,"Irun - Jaitzubia Auzoa 154, Bidasoa Ospitalea",,43.3416733503616,-1.8149617325071419,9,Irun,0,
EKI-64,Ekialdebus,1623,,Hondarribia - Kosta Kalea 17,,43.355777898897415,-1.7980529995595245,9,Hondarribia,0,
EKI-65,Ekialdebus,1628,,Hondarribia - Santa Engrazia Auzoa 8,,43.36073596061579,-1.795166058407642,9,Hondarribia,0,
EKI-66,Ekialdebus,1525,,"Irun - Ventas Auzoa 80a, Txingudi Merkatalgunea",,43.32039825215626,-1.8362424539470688,9,Irun,0,
EKI-67,Ekialdebus,1526,,Irun - Araso Industrialdea,,43.32319110621848,-1.833734798083226,9,Irun,0,
EKI-68,Ekialdebus,1528,,Irun - Elizatxo Hiribidea 54,,43.33148312164569,-1.8100285282255877,9,Irun,0,
EKI-69,Ekialdebus,1530,,"Irun - Gobaragin Kalea 4, Lavanderas",,43.333782547152204,-1.8077508997862488,9,Irun,0,
EKI-70,Ekialdebus,1534,,Irun - Aldabe Mendia Kalea 49 Parean,,43.3383717688585,-1.8109179178952364,9,Irun,0,
EKI-71,Ekialdebus,1537,,"Irun - Pedro Manuel De Arístegui Y Petit Enbajadorea Plaza 9, Embajador Aristegi",,43.339686762653315,-1.811817505475135,9,Irun,0,
EKI-72,Ekialdebus,1594,,Irun- Molino Errepidea (donostiarantz),,43.331257235249566,-1.8142885118171648,9,Ekialdea,0,
EKI-73,Ekialdebus,1502,,"Irun - Elizatxo Hiribidea, Bentak (arretxe-ugalde Biribilgunea)",,43.33100324335291,-1.8141084293897352,9,Irun,0,
EKI-74,Ekialdebus,1600,,"Hondarribia - Amute Auzoa 49, Kaputxinoak",,43.3528691689026,-1.7980240373867364,9,Hondarribia,0,
EKI-75,Ekialdebus,1609,,Hondarribia - Mendelu Kalea 17,,43.347148777598846,-1.8012091453788275,9,Hondarribia,0,
EKI-76,Ekialdebus,1613,,Hondarribia - Kosta Kalea 3 Hondarribirantz,,43.35811705353357,-1.797007247377622,9,Hondarribia,0,
EKI-77,Ekialdebus,1626,,"Irun - Letxunborro Hiribidea, Gibeleta",,43.34367394475223,-1.8055956580426582,9,Irun,0,
EKI-78,Ekialdebus,1629,,Hondarribia - Minasoroeta Kalea 11,,43.361133556325385,-1.793590877214878,9,Hondarribia,0,
EKI-79,Ekialdebus,1529,,"Irun - Gobaragin Kalea 4 Parean, Lavanderas",,43.33375399632719,-1.8076034324151151,9,Irun,0,
EKI-80,Ekialdebus,1531,,"Irun - Andrearriaga Ibilbidea 14, Elatzeta Eskola",,43.32850237456963,-1.8195595744886544,9,Irun,0,
EKI-81,Ekialdebus,1532,,"Irun - Elizatxo Hiribidea, Piketazaharra",,43.33196736396871,-1.8072436668489869,9,Irun,0,
EKI-82,Ekialdebus,1535,,Irun - Aldabe Mendia Kalea 49,,43.3382973110759,-1.8106849790861463,9,Irun,0,
EKI-83,Ekialdebus,1527,,"Irun - Mazuola Kalea 2 Parean, Araso Industrialdeko Sarrera",,43.324758420701045,-1.8355548640710804,9,Irun,0,
EKI-84,Ekialdebus,131,,"Donostia - Urumea Pasalekua 15, Aldunaene",,43.30860739944981,-1.9761096332342565,1,Donostia,0,
EKI-85,Ekialdebus,149,,Donostia - Riberas De Loiola 12-14,,43.3114280821713,-1.9733494540145946,1,Donostia,0,
EKI-86,Ekialdebus,173,,Donostia - Renfe Geltokia,,43.317747301849664,-1.9771523983303527,1,Donostia,0,
EKI-87,Ekialdebus,1006,,"Pasai San Pedro - Euskadi Etorbidea, Gudarien Plaza",,43.323173844965744,-1.9305397940812852,1,Pasai San Pedro,0,
EKI-88,Ekialdebus,1007,,Pasai San Pedro - Euskadi Etorbidea 25,,43.322905416948345,-1.933615503281922,1,Pasai San Pedro,0,
EKI-89,Ekialdebus,1008,,Pasai San Pedro - Euskadi Etorbidea 1,,43.32243849535796,-1.9366576479482125,1,Pasai San Pedro,0,
EKI-90,Ekialdebus,11,,"Donostia - Pasai San Pedro 25, Bidebieta",,43.3220550344267,-1.9399696241363997,1,Donostia,0,
EKI-91,Ekialdebus,20,,"Donostia - Aita Donostia Plaza, Anoeta",,43.302781858526444,-1.975147094626347,1,Donostia,0,
EKI-92,Ekialdebus,68,,"Donostia - Miramon Pasealekua, Poliklinika Ii",,43.29026241603562,-1.9798319542171547,1,Donostia,0,
EKI-93,Ekialdebus,70,,"Donostia - Begiristain Doktorea, Ospitalea Ii",,43.293043046843835,-1.9705893018841374,1,Donostia,0,
EKI-94,Ekialdebus,111,,Donostia - Zorroaga 39 - Illunbe,,43.300773554015905,-1.9681040614392507,1,Donostia,0,
EKI-95,Ekialdebus,112,,Donostia - Ospitalea,,43.29355568923511,-1.9685219771984255,1,Donostia,0,
EKI-96,Ekialdebus,115,,"Donostia - Barcelona Hiribidea, 15",,43.3090553020438,-1.9718357466420082,1,Donostia,0,
EKI-97,Ekialdebus,1012,,Pasai San Pedro - Esnabide Kalea 6,,43.324879406218706,-1.92613139657749,1,Pasai San Pedro,0,
EKI-98,Ekialdebus,134,,"Donostia - Begiristain Doktorea 218, Onkologikoa",,43.291552849904306,-1.9741029802303793,1,Donostia,0,
EKI-99,Ekialdebus,1019,,Pasaia - Molinao,,43.31559349643553,-1.91634314017224,1,Pasaia,0,
EKI-100,Ekialdebus,10,,Donostia - Bidebieta,,43.32190984282394,-1.9398488173632222,1,Donostia,0,
EKI-101,Ekialdebus,1003,,Pasai San Pedro - Euskadi Etorbidea 3,,43.32234278636848,-1.9370169807583197,1,Pasai San Pedro,0,
EKI-102,Ekialdebus,1004,,"Pasai San Pedro - Euskadi Etorbidea, Azoka",,43.32282335491318,-1.9335059389061615,1,Pasai San Pedro,0,
EKI-103,Ekialdebus,1005,,"Pasai San Pedro - Euskadi Etorbidea 61 Parean, Gudarien Plaza",,43.3230620028452,-1.9301347551098738,1,Pasai San Pedro,0,
EKI-104,Ekialdebus,34,,Donostia - Toribio Altzaga Kalea - Arcco,,43.305010381163264,-1.9736300877298512,1,Donostia,0,
EKI-105,Ekialdebus,69,,"Donostia - Begiristain Doktorea 115, Ospitalea",,43.29279007053137,-1.9704949511234529,1,Donostia,0,
EKI-106,Ekialdebus,114,,"Donostia - Begiristain Doktorearen Pasealekua, Begiristain Ii",,43.30091682589823,-1.9680153359087278,1,Donostia,0,
EKI-107,Ekialdebus,117,,Donostia - Barcelona Hiribidea 28,,43.31112602612656,-1.9718008377610465,1,Donostia,0,
EKI-108,Ekialdebus,126,,"Donostia - Begiristain Doktorea 121, Onkologikoa",,43.29165602253575,-1.9735588567964795,1,Donostia,0,
EKI-109,Ekialdebus,12,,"Donostia -  Jose Elosegi Alkatearen Hiribidea 101 Parean, Elosegi 283",,43.32138233492827,-1.9451241934960837,1,Donostia,0,
EKI-110,Ekialdebus,121,,"Donostia - Kolon Pasalekua 13, Gros",,43.323023587065514,-1.9771132083834033,1,Donostia,0,
EKI-111,Ekialdebus,124,,"Donostia - Okendo Kalea, 18",,43.32147326803109,-1.9809748003998298,1,Donostia,0,
EKI-112,Ekialdebus,1014,,Pasai San Pedro - Ricardo Arrillaga Kalea  6,,43.32419384342872,-1.9298435517836503,1,Pasai San Pedro,0,
EKI-113,Ekialdebus,1015,,Pasai San Pedro - Gran Sol Kalea 3,,43.324931276292666,-1.9307063014116181,1,Pasai San Pedro,0,
EKI-114,Ekialdebus,1016,,Pasai San Pedro - Bordaenea Kalea 2,,43.32581839445231,-1.9321708103083715,1,Pasai San Pedro,0,
EKI-115,Ekialdebus,1017,,Pasai San Pedro - Oiartzun Kalea 8,,43.32471812744438,-1.9339168025587252,1,Pasai San Pedro,0,
EKI-116,Ekialdebus,1018,,Pasai San Pedro - Ulia Etorbidea 22,,43.32557217212196,-1.9376390299065362,1,Pasai San Pedro,0,
EKI-117,Ekialdebus,151,,Donostia - Azkuene Kalea 35,,43.32573278113176,-1.9384502686438476,1,Donostia,0,
EKI-118,Ekialdebus,152,,Donostia - Azkuene Kalea 19,,43.324483951333214,-1.9377813317577237,1,Donostia,0,
EKI-119,Ekialdebus,15,,Donostia - Antso Jakitunaren Hiribidea 26,,43.30880305759435,-1.9798671487451063,1,Donostia,0,
EKI-120,Ekialdebus,19,,"Donostia - Mendeurrenaren Plaza, Centenario",,43.312670035400096,-1.98032037853424,1,Donostia,0,
EKI-121,Ekialdebus,160,,Donostia - Urbieta Kalea 50,,43.31467708932894,-1.981224025824442,1,Donostia,0,
EKI-122,Ekialdebus,9,,"Donostia - Jose Elosegi Alkatearen Hiribidea 102, Elosegi 102",,43.32117367225726,-1.9449551421415654,1,Donostia,0,
EKI-123,Ekialdebus,700,,Errenteria - Beraun Kalea 15,,43.309309353618076,-1.9088714950344217,1,Errenteria,0,
EKI-124,Ekialdebus,713,,Errenteria - Pontika,,43.30932522059201,-1.9039389790561252,1,Errenteria,0,
EKI-125,Ekialdebus,714,,"Errenteria - Galtzaraborda Etorbidea 67 Parean, Beraungo Osasun Zentroa",,43.313521109571184,-1.9114597268038143,1,Errenteria,0,
EKI-126,Ekialdebus,715,,"Errenteria - Alaberga Auzoa 53, Telefónica",,43.314909960504565,-1.9079080652254186,1,Errenteria,0,
EKI-127,Ekialdebus,716,,"Errenteria - Sorgintzulo Kalea 6 Parean, Versalles Dorrea",,43.317731180873025,-1.9082028388927927,1,Errenteria,0,
EKI-128,Ekialdebus,717,,Errenteria  - Sorgintzulo Kalea 11,,43.31635766557292,-1.909583953096084,1,Errenteria,0,
EKI-129,Ekialdebus,719,,Errenteria - Galtzaraborda Hiribidea 53 Parean,,43.31131761137337,-1.9117333464493074,1,Errenteria,0,
EKI-130,Ekialdebus,721,,"Errenteria - Galtzaraborda Etorbidea, Koldo Mitxelena",,43.31095219010024,-1.9083488668225772,1,Errenteria,0,
EKI-131,Ekialdebus,722,,Errenteria - Urbia Plaza 1,,43.311521053475246,-1.905687513893463,1,Errenteria,0,
EKI-132,Ekialdebus,723,,"Errenteria - Morrongilleta 24, Aralar Plaza",,43.31177096648364,-1.90263725412247,1,Errenteria,0,
EKI-133,Ekialdebus,709,,Errenteria  - Sorgintzulo Kalea 11 Parean,,43.31633136201835,-1.9096584154680092,1,Errenteria,0,
EKI-134,Ekialdebus,710,,"Errenteria - Sorgintzulo Kalea 6, Kristobal Gamon Ikastetxea",,43.31761961361487,-1.9078348689027702,1,Errenteria,0,
EKI-135,Ekialdebus,711,,"Errenteria - Alaberga Auzoa 54 Parean, Telefónica",,43.31520411418472,-1.9075945028105787,1,Errenteria,0,
EKI-136,Ekialdebus,712,,"Errenteria - Galtzaraborda Etorbidea 67, Beraungo Osasun Zentroa",,43.31414239471411,-1.9105114382478516,1,Errenteria,0,
EKI-137,Ekialdebus,720,,Errenteria - Galtzaraborda Etorbidea 61,,43.31168675960314,-1.9126762507027688,1,Errenteria,0,
EKI-138,Ekialdebus,97,,"Donostia - Casares Pasealekua, Darieta",,43.320195879617934,-1.9260042375827557,1,Donostia,0,
EKI-139,Ekialdebus,98,,"Donostia - Casares Pasealekua, Oleta",,43.31973712346421,-1.9298971167723953,1,Donostia,0,
EKI-140,Ekialdebus,99,,"Donostia - Altza Pasealekua 6, Santa Barbara",,43.31753473010391,-1.930293405574199,1,Donostia,0,
EKI-141,Ekialdebus,100,,"Donostia - Larratxo Pasealekua, Nerecan",,43.316633872809085,-1.9341074857341216,1,Donostia,0,
EKI-142,Ekialdebus,120,,"Donostia - Leosiñeta Kalea, Larratxo 46",,43.31356097786554,-1.9377249854164422,1,Donostia,0,
EKI-143,Ekialdebus,1305,,"Astigarraga - Donostia Ibilbidea 38, Hezegunea",,43.28339451220202,-1.9492812512524453,1,Astigarraga,0,
EKI-144,Ekialdebus,142,,"Donostia - Garbera Bidea, Garbera",,43.30822784707357,-1.9481753819560068,1,Donostia,0,
EKI-145,Ekialdebus,1308,,"Astigarraga - Donostia Ibilbidea, Industrialgunea",,43.28029255164625,-1.950764305254365,1,Astigarraga,0,
EKI-146,Ekialdebus,153,,"Donostia - Lauaizeta Kalea 28, Martillun",,43.31290583123063,-1.9360223452228398,1,Donostia,0,
EKI-147,Ekialdebus,155,,"Donostia - Txapinene Kalea 11, San Martzial",,43.31409995758489,-1.9346820343942084,1,Donostia,0,
EKI-148,Ekialdebus,1404,,Lezo - Altamira,,43.31713032708974,-1.9018748682977973,1,Lezo,0,
EKI-149,Ekialdebus,101,,"Donostia - Larratxo Pasealekua, Nerecan",,43.316523193093815,-1.933825783507152,1,Donostia,0,
EKI-150,Ekialdebus,102,,"Donostia - Altza Pasealekua 4 Parean, Santa Barbara",,43.31756832000791,-1.9300338389538851,1,Donostia,0,
EKI-151,Ekialdebus,103,,"Donostia - Casares Pasealekua, Oleta",,43.31974266464615,-1.9295270387174595,1,Donostia,0,
EKI-152,Ekialdebus,104,,"Donostia - Casares Pasealekua, Darieta",,43.32036566278018,-1.9258655856856361,1,Donostia,0,
EKI-153,Ekialdebus,1304,,"Astigarraga - Donostia Ibilbidea, Lekueder",,43.280461915407855,-1.950576523242942,1,Astigarraga,0,
EKI-154,Ekialdebus,1307,,Astigarraga - Donostia Ibilbidea - Pelotari Biribilgunea,,43.28268722661359,-1.9497248069416213,1,Astigarraga,0,
EKI-155,Ekialdebus,154,,"Donostia - Lauaizeta Kalea 33, Martillun",,43.31301249122269,-1.9358725083139185,1,Donostia,0,
EKI-156,Ekialdebus,156,,"Donostia - Txapinene Kalea 17, San Martzial",,43.3141429053014,-1.9344593159973713,1,Donostia,0,
EKI-157,Ekialdebus,110,,Donostia - Gipuzkoa Plaza,,43.321047157357235,-1.981660235996646,1,Donostia,0,
EKI-158,Ekialdebus,808,,"Oiartzun - Iparralde Etorbidea, Eliza",,43.30010881672508,-1.8601527142856946,1,Oiartzun,0,
EKI-159,Ekialdebus,809,,"Oiartzun - Santusene Kalea 2, Belutene",,43.29669360113211,-1.8580960970161273,1,Oiartzun,0,
EKI-160,Ekialdebus,810,,Oiartzun - Altzibar,,43.29345309058354,-1.8573061489733185,1,Oiartzun,0,
EKI-161,Ekialdebus,811,,"Oiartzun - Kaleberrria, Peñene",,43.29262217645342,-1.859762491789346,1,Oiartzun,0,
EKI-162,Ekialdebus,812,,"Oiartzun - Iturriotz, Herrigunea",,43.293177138148685,-1.8657678471880244,1,Oiartzun,0,
EKI-163,Ekialdebus,813,,"Oiartzun - Araneder Bidea 18 Parean, Ibarre",,43.29626742861691,-1.8723181758693344,1,Oiartzun,0,
EKI-164,Ekialdebus,814,,"Oiartzun - Ihurrita Bidea 10a, Ugaldetxo",,43.29917909450711,-1.8772204262911654,1,Oiartzun,0,
EKI-165,Ekialdebus,815,,Oiartzun - Mamut Merk.gunea,,43.301176923158536,-1.8816960459137524,1,Oiartzun,0,
EKI-166,Ekialdebus,816,,"Oiartzun - Lartzabal Etxadia 1, Arragua",,43.308941392271514,-1.8819605965476909,1,Oiartzun,0,
EKI-167,Ekialdebus,16,,"Donostia - Tolosa Hiribidea, Amerika Plaza",,43.30235030832763,-2.003758065189647,1,Donostia,0,
EKI-168,Ekialdebus,17,,"Donostia - Tolosa Hiribidea 77, Unibertsitateak",,43.30718139051736,-2.0084386093288247,1,Donostia,0,
EKI-169,Ekialdebus,80,,"Donostia - Tolosa Hiribidea, Lorea",,43.3050203205687,-2.006365353401695,1,Donostia,0,
EKI-170,Ekialdebus,81,,"Donostia - Zumalakarregi Hiribidea 11, Esklabak",,43.31480581816229,-2.001951478199909,1,Donostia,0,
EKI-171,Ekialdebus,140,,"Donostia - Tolosa Hiribidea 13, Magisteritza",,43.31227457325447,-2.0070117023994363,1,Donostia,0,
EKI-172,Ekialdebus,817,,"Oiartzun - Joansendo Kalea 5 Parean, Aristegi",,43.299527422692805,-1.8806043789819578,1,Oiartzun,0,
EKI-173,Ekialdebus,804,,"Oiartzun - Oreretako Bidea 23, Arragua",,43.308790391830556,-1.8821729824850484,1,Oiartzun,0,
EKI-174,Ekialdebus,805,,"Oiartzun -  Urkia Bidea 12, Talaia Industrialdea",,43.304275303008936,-1.883624304316859,1,Oiartzun,0,
EKI-175,Ekialdebus,806,,Oiartzun - Mamut Merk.gunea,,43.3021012435317,-1.8822955578481058,1,Oiartzun,0,
EKI-176,Ekialdebus,807,,Oiartzun - Ugaldetxo,,43.298507474842815,-1.8757657077856675,1,Oiartzun,0,
EKI-177,Ekialdebus,18,,Donostia - Tolosa Hiribidea 138,,43.30223745278323,-2.004240745774249,1,Donostia,0,
EKI-178,Ekialdebus,60,,Donostia - Zumalakarregi Hiribidea 4,,43.3151005570909,-2.0016753552574245,1,Donostia,0,
EKI-179,Ekialdebus,66,,"Donostia - Tolosa Hiribidea, Magisteritza",,43.31129467300837,-2.0092718996125347,1,Donostia,0,
EKI-180,Ekialdebus,72,,"Donostia - Tolosa Hiribidea, Zubimusu Parkea",,43.312861183426456,-2.0061266271778098,1,Donostia,0,
EKI-181,Ekialdebus,73,,Donostia - Tolosa Hiribidea 112,,43.30490734718207,-2.0068357226154263,1,Donostia,0,
EKI-182,Ekialdebus,85,,"Donostia - Tolosa Hiribidea 70, Unibertsitatea",,43.307049013336595,-2.0087490148637817,1,Donostia,0,
EKI-183,Ekialdebus,818,,"Oiartzun - Joansendo Kalea 5, Aristegi",,43.299592011219744,-1.8807634658240713,1,Oiartzun,0,
EKI-184,Ekialdebus,820,,Oiartzun -  Rafael Pikabea Biribilgunea,,43.299213029358036,-1.8678747781421263,1,Oiartzun,0,
EKI-185,Ekialdebus,821,,Oiartzun - Rafael Pikabea Etorbidea 25,,43.299226954198566,-1.863830762461225,1,Oiartzun,0,
EKI-186,Ekialdebus,1403,,"Lezo - Jaizkibel Etorbidea, Herrigunea",,43.32154052846197,-1.897922854716404,1,Lezo,0,
EKI-187,Ekialdebus,1010,,Pasai Donibane- Juan Xxiii (frontoia),,43.32360204789567,-1.914819437945285,1,Ekialdea,0,
EKI-188,Ekialdebus,1011,,"Pasai Donibane - Lezobidea 24, Meipi",,43.32270474671943,-1.912307086719869,1,Pasai Donibane,0,
EKI-189,Ekialdebus,1405,,Lezo - Kiroldegia,,43.31899345355248,-1.8999174367120708,1,Lezo,0,
EKI-190,Ekialdebus,1402,,"Lezo - Jaizkibel Etorbidea, Ijurko",,43.32144598301933,-1.8974559087121814,1,Lezo,0,
EKI-191,Ekialdebus,1406,,Lezo - Kiroldegia,,43.31898124781957,-1.8995846785822534,1,Lezo,0,
EKI-192,Ekialdebus,1013,,Pasaia - San Roke Kalea 3,,43.324250612099426,-1.91484489313063,1,Pasaia,0,
EKI-193,Ekialdebus,1519,,Irun - Letxunborro Puiana Biribilgunea,,43.339826061980624,-1.8113583297874414,9,Irun,0,
EKI-194,Ekialdebus,1501,,"Irun - Letxumborro Hiribidea 59 Parean, Aranibar",,43.33003418300655,-1.8231563214529298,9,Irun,0,
EKI-195,Ekialdebus,1521,,Irun - Aldabe Mendia Kalea 13,,43.3396303389501,-1.8107206405429996,9,Irun,0,
EKI-196,Ekialdebus,1506,,"Irun - Elizatxo Hiribidea 14, La Salle",,43.3352946782752,-1.799086246924387,9,Irun,0,
EKI-197,Ekialdebus,1507,,"Irun - Gipuzkoa Hiribidea 6, Luis Mariano",,43.3397592906081,-1.7946557229091729,9,Irun,0,
EKI-198,Ekialdebus,1508,,"Irun - Hondarribia Kalea 25, Gurutze Gorria",,43.343279893452014,-1.7997801191490888,9,Irun,0,
EKI-199,Ekialdebus,1515,,Irun - Colon Ibilbidea 43,,43.34079606544138,-1.7964857484905066,9,Irun,0,
EKI-200,Ekialdebus,1533,,"Irun - Elizatxo Hiribidea  36, Oinaurre",,43.33272382505206,-1.8055265908545848,9,Irun,0,
EKI-201,Ekialdebus,1595,,Irun- Molino Errepidea (irunerantz),,43.33121375634328,-1.8144373775832587,9,Ekialdea,0,
EKI-202,Ekialdebus,1509,,"Irun - Zabaltza Plaza 1, Colon-zabaltza",,43.3401069268763,-1.7926132761739215,9,Irun,0,
EKI-203,Ekialdebus,1610,,"Hondarribia - Itsasargi Kalea 20, La Muela",,43.37125342148466,-1.7934890262265746,9,Hondarribia,0,
EKI-204,Ekialdebus,1513,,"Irun - Colon Ibilbidea 52, Euskotren",,43.34080273127272,-1.7962635521968044,9,Irun,0,
EKI-205,Ekialdebus,1614,,"Hondarribia - Ramon Iribarren Pasealekua 26, Lurgorri",,43.38368016946583,-1.7961191094670748,9,Hondarribia,0,
EKI-206,Ekialdebus,1615,,"Hondarribia - Ramon Iribarren Pasealekua 15 Parean, Iterlimen",,43.38032552456134,-1.7982100649396857,9,Hondarribia,0,
EKI-207,Ekialdebus,1619,,"Hondarribia - Foru Kalea 15 Parean, Arroka",,43.37479024502219,-1.796727042421473,9,Hondarribia,0,
EKI-208,Ekialdebus,1517,,Irun - Fermín Calbetón Kalea 3,,43.339347597243226,-1.7889273365255478,9,Irun,0,
EKI-209,Ekialdebus,1522,,Irun - Hondarribia Kalea,,43.34248954794006,-1.799117141239218,9,Irun,0,
EKI-210,Ekialdebus,1631,,"Hondarribia - Matxin Arzu Kalea 4, La Marina Eliza",,43.36730511487077,-1.793073603741606,9,Hondarribia,0,
EKI-211,Ekialdebus,1510,,Irun - Zubiaurre Kalea 5,,43.34175943318189,-1.7990451739815885,9,Irun,0,
EKI-212,Ekialdebus,1512,,Irun - Larreaundi Biribilgunea,,43.33344688980251,-1.7895133607703908,9,Irun,0,
EKI-213,Ekialdebus,1616,,"Hondarribia - Ramon Iribarren Pasealekua 15, Iterlimen",,43.38072332097596,-1.7983626919433193,9,Hondarribia,0,
EKI-214,Ekialdebus,1620,,"Hondarribia - Foru Kalea 15, Arroka",,43.374665638278465,-1.796865288154086,9,Hondarribia,0,
EKI-215,Ekialdebus,1536,,Irun - Euskal Herria Hiribidea 9,,43.3341217665324,-1.7937310543746612,9,Irun,0,
EKI-216,Ekialdebus,1538,,Irun - Urdanibia Plaza,,43.33762163978648,-1.7858035573550135,9,Irun,0,
EKI-217,Ekialdebus,1625,,"Hondarribia - Baserritar Etorbidea 64, Talaia",,43.37122768319791,-1.7995993664480983,9,Hondarribia,0,
EKI-218,Ekialdebus,1503,,"Irun - Gipuzkoa Hiribidea 1, Luis Mariano",,43.33943558851704,-1.794699137067702,9,Irun,0,
EKI-219,Ekialdebus,1523,,Irun - Elizatxo Hiribidea 11,,43.336292316388246,-1.7963403262207773,9,Irun,0,
EKI-220,Ekialdebus,139,,"Donostia - Zorroaga Anoeta, Anoeta Estadioa",,43.30330535344897,-1.9732765637982028,1,Donostia,0,
EKI-221,Ekialdebus,1618,,Hondarribia - Dorrea Biribilgunea,,43.36876047285822,-1.7995986588867001,9,Hondarribia,0,
EKI-222,Ekialdebus,1630,,Hondarribia - Labreder Kalea 4,,43.36815788279747,-1.8005238865143283,9,Hondarribia,0,
EKI-223,Ekialdebus,819,,Oiartzun - Rafael Pikabea Etorbidea 35,,43.29888860789918,-1.8714930370854794,1,Oiartzun,0,
EKI-224,Ekialdebus,822,,"Oiartzun - Oreretako Bidea, Mendin",,43.30346202671429,-1.8741455591332898,1,Oiartzun,0,
EKI-225,Ekialdebus,823,,"Oiartzun - Yon Oñatibia Etorbidea 13, Pikabene",,43.3006141066089,-1.8656912373584715,1,Oiartzun,0,
EKI-226,Ekialdebus,1514,,"Irun - Colon, Luis Mariano",,43.34015022745183,-1.7933032782508875,9,Irun,0,
EKI-227,Ekialdebus,1505,,"Irun - Elizatxo Hiribidea 62, Bentak",,43.33087364340125,-1.8155047968864673,9,Irun,0,
EKI-228,Ekialdebus,135,,"Donostia - Miramon Pasealekua, Poliklinika I",,43.29058905940724,-1.9801100109030667,1,Donostia,0,
EKI-229,Ekialdebus,136,,"Donostia - Mikeletegi, Miramon",,43.28808550867007,-1.98209940102392,1,Donostia,0,
EKI-230,Ekialdebus,122,,Donostia - Mikeletegi Pasealekua 12,,43.288067502246335,-1.982099701313472,1,Donostia,0,
EKI-231,Ekialdebus,147,,Donostia - Mikeletegi Pasealekua 6,,43.28697946611503,-1.985310301209348,1,Donostia,0,
EUS-1,Euskotren,ES:Euskotren:Place:2576_Vestibulo_H1:,,San Jose de Lutxana Auzoa / Erandio,San Jose de Lutxana Auzoa / Erandio,43.29135,-2.969773,ES:Euskotren:Zone:2:,Erandio,3,1
EUS-2,Euskotren,ES:Euskotren:Place:2577_Vestibulo_D1:,,Plazuela de San Nicolás / Bilbao,Plazuela de San Nicolás / Bilbao,43.260025,-2.922042,ES:Euskotren:Zone:3:,Bilbao,3,1
EUS-3,Euskotren,ES:Euskotren:Place:2577_Vestibulo_D2:,,Plazuela de San Nicolás / Bilbao,Plazuela de San Nicolás / Bilbao,43.260025,-2.922042,ES:Euskotren:Zone:3:,Bilbao,3,2
EUS-4,Euskotren,ES:Euskotren:Place:2577_Vestibulo_H1:,,Plazuela de San Nicolás / Bilbao,Plazuela de San Nicolás / Bilbao,43.26,-2.922112,ES:Euskotren:Zone:3:,Bilbao,3,1
EUS-5,Euskotren,ES:Euskotren:Place:2579_Vestibulo_D1:,,"Santamañe Kalea, s/n bajo / Bermeo","Santamañe Kalea, s/n bajo / Bermeo",43.417771,-2.723233,ES:Euskotren:Zone:8:,Bermeo,3,1
EUS-6,Euskotren,ES:Euskotren:Place:2579_Vestibulo_H1:,,"Santamañe Kalea, s/n bajo / Bermeo","Santamañe Kalea, s/n bajo / Bermeo",43.417771,-2.723233,ES:Euskotren:Zone:8:,Bermeo,3,1
EUS-7,Euskotren,ES:Euskotren:Place:2580_Vestibulo_D1:,,"Avd. Donostia, 1 bajo / Lasarte-Oria","Avd. Donostia, 1 bajo / Lasarte-Oria",43.270648,-2.020128,ES:Euskotren:Zone:42:,Lasarte-Oria,3,1
EUS-8,Euskotren,ES:Euskotren:Place:2580_Vestibulo_H1:,,"Avd. Donostia, 1 bajo / Lasarte-Oria","Avd. Donostia, 1 bajo / Lasarte-Oria",43.270648,-2.020128,ES:Euskotren:Zone:42:,Lasarte-Oria,3,1
EUS-9,Euskotren,ES:Euskotren:Place:2581_Area_A1:,,Kanpoaldeko atondoa,"Plaza Easo, 9 / Donostia-San Sebastián",43.312861,-1.981479,ES:Euskotren:Zone:42:,Donostia-San Sebastián,3,1
EUS-10,Euskotren,ES:Euskotren:Place:2581_Area_A2:,,Komisaldegi ondoko atondoa,"Plaza Easo, 9 / Donostia-San Sebastián",43.312861,-1.981479,ES:Euskotren:Zone:42:,Donostia-San Sebastián,3,1
EUS-11,Euskotren,ES:Euskotren:Place:2581_Area_A3:,,Kantzelagailuen osteko atondoa,"Plaza Easo, 9 / Donostia-San Sebastián",43.312861,-1.981479,ES:Euskotren:Zone:42:,Donostia-San Sebastián,3,1
EUS-12,Euskotren,ES:Euskotren:Place:2581_Vestibulo_H1:,,"Plaza Easo, 9 / Donostia-San Sebastián","Plaza Easo, 9 / Donostia-San Sebastián",43.312861,-1.981479,ES:Euskotren:Zone:42:,Donostia-San Sebastián,3,1
EUS-13,Euskotren,ES:Euskotren:Place:2582_Vestibulo_D1:,,"Boulevard de Gaulle, s/n / Hendaia","Boulevard de Gaulle, s/n / Hendaia",43.352453,-1.782226,ES:Euskotren:Zone:43:,Hendaia,3,1
EUS-14,Euskotren,ES:Euskotren:Place:2582_Vestibulo_H1:,,"Boulevard de Gaulle, s/n / Hendaia","Boulevard de Gaulle, s/n / Hendaia",43.352453,-1.782226,ES:Euskotren:Zone:43:,Hendaia,3,1
EUS-15,Euskotren,ES:Euskotren:Place:2584_Vestibulo_D1:,,"Calle de María Etxetxiki, 89-91 / Zarautz","Calle de María Etxetxiki, 89-91 / Zarautz",43.28367,-2.160177,ES:Euskotren:Zone:41:,Zarautz,3,1
EUS-16,Euskotren,ES:Euskotren:Place:2584_Vestibulo_H1:,,"Calle de María Etxetxiki, 89-91 / Zarautz","Calle de María Etxetxiki, 89-91 / Zarautz",43.28367,-2.160177,ES:Euskotren:Zone:41:,Zarautz,3,1
EUS-17,Euskotren,ES:Euskotren:Place:2585_Vestibulo_D1:,,"San Martin Bidea, 1 / Sondika","San Martin Bidea, 1 / Sondika",43.291855,-2.925258,ES:Euskotren:Zone:2:,Sondika,3,1
EUS-18,Euskotren,ES:Euskotren:Place:2585_Vestibulo_H1:,,"San Martin Bidea, 1 / Sondika","San Martin Bidea, 1 / Sondika",43.291828,-2.925175,ES:Euskotren:Zone:2:,Sondika,3,1
EUS-19,Euskotren,ES:Euskotren:Place:2586_Vestibulo_D1:,,"Calle Txiki Otaegi, 5 / Amorebieta-Etxano","Calle Txiki Otaegi, 5 / Amorebieta-Etxano",43.221786,-2.734986,ES:Euskotren:Zone:6:,Amorebieta-Etxano,3,1
EUS-20,Euskotren,ES:Euskotren:Place:2586_Vestibulo_H1:,,"Calle Txiki Otaegi, 5 / Amorebieta-Etxano","Calle Txiki Otaegi, 5 / Amorebieta-Etxano",43.221786,-2.734986,ES:Euskotren:Zone:6:,Amorebieta-Etxano,3,1
EUS-21,Euskotren,ES:Euskotren:Place:2587_Area_A1:,,"Calle de la Estación, 10 / Lemoa","Calle de la Estación, 10 / Lemoa",43.207092,-2.775247,ES:Euskotren:Zone:6:,Lemoa,3,1
EUS-22,Euskotren,ES:Euskotren:Place:2587_Area_A2:,,"Calle de la Estación, 10 / Lemoa","Calle de la Estación, 10 / Lemoa",43.207092,-2.775247,ES:Euskotren:Zone:6:,Lemoa,3,1
EUS-23,Euskotren,ES:Euskotren:Place:2587_Vestibulo_D1:,,"Calle de la Estación, 10 / Lemoa","Calle de la Estación, 10 / Lemoa",43.207165,-2.775422,ES:Euskotren:Zone:6:,Lemoa,3,1
EUS-24,Euskotren,ES:Euskotren:Place:2587_Vestibulo_H1:,,"Calle de la Estación, 10 / Lemoa","Calle de la Estación, 10 / Lemoa",43.207165,-2.775422,ES:Euskotren:Zone:6:,Lemoa,3,1
EUS-25,Euskotren,ES:Euskotren:Place:2589_Area_A1:,,"Paseo de Colón, 25 / Irun","Paseo de Colón, 25 / Irun",43.341206,-1.796039,ES:Euskotren:Zone:43:,Irun,3,2
EUS-26,Euskotren,ES:Euskotren:Place:2589_Area_A2:,,"Paseo de Colón, 25 / Irun","Paseo de Colón, 25 / Irun",43.341206,-1.796039,ES:Euskotren:Zone:43:,Irun,3,1
EUS-27,Euskotren,ES:Euskotren:Place:2589_Area_A3:,,"Paseo de Colón, 25 / Irun","Paseo de Colón, 25 / Irun",43.341206,-1.796039,ES:Euskotren:Zone:43:,Irun,3,1
EUS-28,Euskotren,ES:Euskotren:Place:2589_Vestibulo_D1:,,Atondo Nagusia,"Paseo de Colón, 25 / Irun",43.341206,-1.796039,ES:Euskotren:Zone:43:,Irun,3,1
EUS-29,Euskotren,ES:Euskotren:Place:2589_Vestibulo_D2:,,Atondo Nagusia,"Paseo de Colón, 25 / Irun",43.341206,-1.796039,ES:Euskotren:Zone:43:,Irun,3,1
EUS-30,Euskotren,ES:Euskotren:Place:2589_Vestibulo_D3:,,"Paseo de Colón, 25 / Irun","Paseo de Colón, 25 / Irun",43.341206,-1.796039,ES:Euskotren:Zone:43:,Irun,3,1
EUS-31,Euskotren,ES:Euskotren:Place:2589_Vestibulo_H1:,,Atondo Nagusia,"Paseo de Colón, 25 / Irun",43.341206,-1.796039,ES:Euskotren:Zone:43:,Irun,3,1
EUS-32,Euskotren,ES:Euskotren:Place:2589_Vestibulo_H2:,,"Paseo de Colón, 25 / Irun","Paseo de Colón, 25 / Irun",43.341206,-1.796039,ES:Euskotren:Zone:43:,Irun,3,1
EUS-33,Euskotren,ES:Euskotren:Place:2589_Vestibulo_H3:,,"Paseo de Colón, 25 / Irun","Paseo de Colón, 25 / Irun",43.341206,-1.796039,ES:Euskotren:Zone:43:,Irun,3,1
EUS-34,Euskotren,ES:Euskotren:Place:2590_Vestibulo_D1:,,"Paseo de Anoeta, 32 / Donostia-San Sebastián","Paseo de Anoeta, 32 / Donostia-San Sebastián",43.302049,-1.975286,ES:Euskotren:Zone:42:,Donostia-San Sebastián,3,1
EUS-35,Euskotren,ES:Euskotren:Place:2590_Vestibulo_H1:,,"Paseo de Anoeta, 32 / Donostia-San Sebastián","Paseo de Anoeta, 32 / Donostia-San Sebastián",43.302049,-1.975286,ES:Euskotren:Zone:42:,Donostia-San Sebastián,3,1
EUS-36,Euskotren,ES:Euskotren:Place:2591_Vestibulo_D1:,,"Calle de Santa Ana, 10 / Etxebarri","Calle de Santa Ana, 10 / Etxebarri",43.245559,-2.89103,ES:Euskotren:Zone:4:,Etxebarri,3,1
EUS-37,Euskotren,ES:Euskotren:Place:2591_Vestibulo_H1:,,"Calle de Santa Ana, 10 / Etxebarri","Calle de Santa Ana, 10 / Etxebarri",43.245559,-2.89103,ES:Euskotren:Zone:4:,Etxebarri,3,1
EUS-38,Euskotren,ES:Euskotren:Place:2592_Area_A1:,,"Olazkoegia auzoa, 64, bajo / Aia","Olazkoegia auzoa, 64, bajo / Aia",43.274229,-2.125837,ES:Euskotren:Zone:41:,Aia,3,1
EUS-39,Euskotren,ES:Euskotren:Place:2592_Area_A2:,,"Olazkoegia auzoa, 64, bajo / Aia","Olazkoegia auzoa, 64, bajo / Aia",43.274229,-2.125837,ES:Euskotren:Zone:41:,Aia,3,1
EUS-40,Euskotren,ES:Euskotren:Place:2592_Vestibulo_D2:,,"Olazkoegia auzoa, 64, bajo / Aia","Olazkoegia auzoa, 64, bajo / Aia",43.274229,-2.125837,ES:Euskotren:Zone:41:,Aia,3,1
EUS-41,Euskotren,ES:Euskotren:Place:2592_Vestibulo_H1:,,"Olazkoegia auzoa, 64, bajo / Aia","Olazkoegia auzoa, 64, bajo / Aia",43.274229,-2.125837,ES:Euskotren:Zone:41:,Aia,3,1
EUS-42,Euskotren,ES:Euskotren:Place:2592_Vestibulo_H2:,,"Olazkoegia auzoa, 64, bajo / Aia","Olazkoegia auzoa, 64, bajo / Aia",43.274229,-2.125837,ES:Euskotren:Zone:41:,Aia,3,1
EUS-43,Euskotren,ES:Euskotren:Place:2594_Area_A1:,,"Av de Otaola, 24B / Eibar","Av de Otaola, 24B / Eibar",43.180662,-2.487442,ES:Euskotren:Zone:40:,Eibar,3,2
EUS-44,Euskotren,ES:Euskotren:Place:2595_Vestibulo_D1:,,"Mintxine bidea, 4 / Sondika","Mintxine bidea, 4 / Sondika",43.298294,-2.927772,ES:Euskotren:Zone:2:,Sondika,3,1
EUS-45,Euskotren,ES:Euskotren:Place:2595_Vestibulo_H1:,,"Mintxine bidea, 4 / Sondika","Mintxine bidea, 4 / Sondika",43.298311,-2.927681,ES:Euskotren:Zone:2:,Sondika,3,1
EUS-46,Euskotren,ES:Euskotren:Place:2596_Area_A1:,,"Barrio de la Astelarre, 93 / Muxika","Barrio de la Astelarre, 93 / Muxika",43.287221,-2.689348,ES:Euskotren:Zone:8:,Muxika,3,1
EUS-47,Euskotren,ES:Euskotren:Place:2596_Area_A2:,,"Barrio de la Astelarre, 93 / Muxika","Barrio de la Astelarre, 93 / Muxika",43.287221,-2.689348,ES:Euskotren:Zone:8:,Muxika,3,1
EUS-48,Euskotren,ES:Euskotren:Place:2597_Vestibulo_D1:,,Calle Tiboli / Bilbao,Calle Tiboli / Bilbao,43.269,-2.925285,ES:Euskotren:Zone:3:,Bilbao,3,1
EUS-49,Euskotren,ES:Euskotren:Place:2597_Vestibulo_H1:,,Calle Tiboli / Bilbao,Calle Tiboli / Bilbao,43.268968,-2.925113,ES:Euskotren:Zone:3:,Bilbao,3,1
EUS-50,Euskotren,ES:Euskotren:Place:2598_Vestibulo_H1:,,"Calle Txomin Egileor, 48 / Galdakao","Calle Txomin Egileor, 48 / Galdakao",43.228887,-2.853507,ES:Euskotren:Zone:4:,Galdakao,3,1
EUS-51,Euskotren,ES:Euskotren:Place:2599_Area_A1:,,"Barrio de Axpe, 138-141 / Busturia","Barrio de Axpe, 138-141 / Busturia",43.39117,-2.693755,ES:Euskotren:Zone:8:,Busturia,3,1
EUS-52,Euskotren,ES:Euskotren:Place:2599_Area_A2:,,"Barrio de Axpe, 138-141 / Busturia","Barrio de Axpe, 138-141 / Busturia",43.39117,-2.693755,ES:Euskotren:Zone:8:,Busturia,3,1
EUS-53,Euskotren,ES:Euskotren:Place:2599_Area_A3:,,"Barrio de Axpe, 138-141 / Busturia","Barrio de Axpe, 138-141 / Busturia",43.39117,-2.693755,ES:Euskotren:Zone:8:,Busturia,3,1
EUS-54,Euskotren,ES:Euskotren:Place:2600_Area_A1:,,"Geltoki kalea, 2, bajo / Berriz","Geltoki kalea, 2, bajo / Berriz",43.168777,-2.574351,ES:Euskotren:Zone:7:,Berriz,3,1
EUS-55,Euskotren,ES:Euskotren:Place:2600_Area_A2:,,"Geltoki kalea, 2, bajo / Berriz","Geltoki kalea, 2, bajo / Berriz",43.168757,-2.574263,ES:Euskotren:Zone:7:,Berriz,3,1
EUS-56,Euskotren,ES:Euskotren:Place:2601_Area_A1:,,"Calle Elotxelerri, s/n / Loiu","Calle Elotxelerri, s/n / Loiu",43.294124,-2.91501,ES:Euskotren:Zone:2:,Loiu,3,1
EUS-57,Euskotren,ES:Euskotren:Place:2601_Area_A2:,,"Calle Elotxelerri, s/n / Loiu","Calle Elotxelerri, s/n / Loiu",43.294161,-2.915206,ES:Euskotren:Zone:2:,Loiu,3,1
EUS-58,Euskotren,ES:Euskotren:Place:2601_Vestibulo_D1:,,"Calle Elotxelerri, s/n / Loiu","Calle Elotxelerri, s/n / Loiu",43.294239,-2.915352,ES:Euskotren:Zone:2:,Loiu,3,1
EUS-59,Euskotren,ES:Euskotren:Place:2601_Vestibulo_D2:,,"Calle Elotxelerri, s/n / Loiu","Calle Elotxelerri, s/n / Loiu",43.294149,-2.915437,ES:Euskotren:Zone:2:,Loiu,3,1
EUS-60,Euskotren,ES:Euskotren:Place:2601_Vestibulo_H1:,,"Calle Elotxelerri, s/n / Loiu","Calle Elotxelerri, s/n / Loiu",43.29421,-2.915275,ES:Euskotren:Zone:2:,Loiu,3,1
EUS-61,Euskotren,ES:Euskotren:Place:2601_Vestibulo_H2:,,"Calle Elotxelerri, s/n / Loiu","Calle Elotxelerri, s/n / Loiu",43.294117,-2.915356,ES:Euskotren:Zone:2:,Loiu,3,1
EUS-62,Euskotren,ES:Euskotren:Place:2602_Area_A1:,,"Av de Guipuzkoa, 11-25 / Ermua","Av de Guipuzkoa, 11-25 / Ermua",43.182796,-2.498825,ES:Euskotren:Zone:40:,Ermua,3,2
EUS-63,Euskotren,ES:Euskotren:Place:2602_Area_A2:,,"Av de Guipuzkoa, 11-25 / Ermua","Av de Guipuzkoa, 11-25 / Ermua",43.182796,-2.498825,ES:Euskotren:Zone:40:,Ermua,3,2
EUS-64,Euskotren,ES:Euskotren:Place:2603_Vestibulo_D1:,,Calle de Trañaetxoste / Abadiño,Calle de Trañaetxoste / Abadiño,43.16663,-2.61575,ES:Euskotren:Zone:7:,Abadiño,3,1
EUS-65,Euskotren,ES:Euskotren:Place:2603_Vestibulo_H1:,,Calle de Trañaetxoste / Abadiño,Calle de Trañaetxoste / Abadiño,43.16663,-2.61575,ES:Euskotren:Zone:7:,Abadiño,3,1
EUS-66,Euskotren,ES:Euskotren:Place:2604_Area_A1:,,"Calle de Estazioko, 1, bajo / Zumaia","Calle de Estazioko, 1, bajo / Zumaia",43.291687,-2.25113,ES:Euskotren:Zone:41:,Zumaia,3,1
EUS-67,Euskotren,ES:Euskotren:Place:2604_Area_A2:,,"Calle de Estazioko, 1, bajo / Zumaia","Calle de Estazioko, 1, bajo / Zumaia",43.291687,-2.25113,ES:Euskotren:Zone:41:,Zumaia,3,1
EUS-68,Euskotren,ES:Euskotren:Place:2604_Vestibulo_D1:,,"Calle de Estazioko, 1, bajo / Zumaia","Calle de Estazioko, 1, bajo / Zumaia",43.291687,-2.25113,ES:Euskotren:Zone:41:,Zumaia,3,1
EUS-69,Euskotren,ES:Euskotren:Place:2604_Vestibulo_H1:,,"Calle de Estazioko, 1, bajo / Zumaia","Calle de Estazioko, 1, bajo / Zumaia",43.291687,-2.25113,ES:Euskotren:Zone:41:,Zumaia,3,1
EUS-70,Euskotren,ES:Euskotren:Place:2606_Area_A1:,,"Barrio de Euba, 20 / Amorebieta-Etxano","Barrio de Euba, 20 / Amorebieta-Etxano",43.196437,-2.698512,ES:Euskotren:Zone:6:,Amorebieta-Etxano,3,1
EUS-71,Euskotren,ES:Euskotren:Place:2606_Area_A2:,,"Barrio de Euba, 20 / Amorebieta-Etxano","Barrio de Euba, 20 / Amorebieta-Etxano",43.196437,-2.698512,ES:Euskotren:Zone:6:,Amorebieta-Etxano,3,1
EUS-72,Euskotren,ES:Euskotren:Place:2606_Area_A3:,,"Barrio de Euba, 20 / Amorebieta-Etxano","Barrio de Euba, 20 / Amorebieta-Etxano",43.196437,-2.698512,ES:Euskotren:Zone:6:,Amorebieta-Etxano,3,2
EUS-73,Euskotren,ES:Euskotren:Place:2606_Vestibulo_D1:,,"Barrio de Euba, 20 / Amorebieta-Etxano","Barrio de Euba, 20 / Amorebieta-Etxano",43.196437,-2.698512,ES:Euskotren:Zone:6:,Amorebieta-Etxano,3,1
EUS-74,Euskotren,ES:Euskotren:Place:2606_Vestibulo_H1:,,"Barrio de Euba, 20 / Amorebieta-Etxano","Barrio de Euba, 20 / Amorebieta-Etxano",43.196437,-2.698512,ES:Euskotren:Zone:6:,Amorebieta-Etxano,3,1
EUS-75,Euskotren,ES:Euskotren:Place:2607_Vestibulo_D1:,,"Barrio de Aretxalde, 78-84 / Lezama","Barrio de Aretxalde, 78-84 / Lezama",43.273333,-2.835749,ES:Euskotren:Zone:2:,Lezama,3,1
EUS-76,Euskotren,ES:Euskotren:Place:2607_Vestibulo_H1:,,"Barrio de Aretxalde, 78-84 / Lezama","Barrio de Aretxalde, 78-84 / Lezama",43.273148,-2.835545,ES:Euskotren:Zone:2:,Lezama,3,1
EUS-77,Euskotren,ES:Euskotren:Place:2608_Area_A1:,,"Calle Zeharbidea, 6 / Donostia-San Sebastián","Calle Zeharbidea, 6 / Donostia-San Sebastián",43.310179,-1.968383,ES:Euskotren:Zone:42:,Donostia-San Sebastián,3,0
EUS-78,Euskotren,ES:Euskotren:Place:2608_Vestibulo_D1:,,"Calle Zeharbidea, 6 / Donostia-San Sebastián","Calle Zeharbidea, 6 / Donostia-San Sebastián",43.310179,-1.968383,ES:Euskotren:Zone:42:,Donostia-San Sebastián,3,0
EUS-79,Euskotren,ES:Euskotren:Place:2608_Vestibulo_H1:,,"Calle Zeharbidea, 6 / Donostia-San Sebastián","Calle Zeharbidea, 6 / Donostia-San Sebastián",43.310179,-1.968383,ES:Euskotren:Zone:42:,Donostia-San Sebastián,3,0
EUS-80,Euskotren,ES:Euskotren:Place:2608_Vestibulo_H2:,,"Calle Zeharbidea, 6 / Donostia-San Sebastián","Calle Zeharbidea, 6 / Donostia-San Sebastián",43.310179,-1.968383,ES:Euskotren:Zone:42:,Donostia-San Sebastián,3,0
EUS-81,Euskotren,ES:Euskotren:Place:2608_Vestibulo_H3:,,"Calle Zeharbidea, 6 / Donostia-San Sebastián","Calle Zeharbidea, 6 / Donostia-San Sebastián",43.310179,-1.968383,ES:Euskotren:Zone:42:,Donostia-San Sebastián,3,0
EUS-82,Euskotren,ES:Euskotren:Place:2609_Area_A1:,,Avda. Gabriel Aresti / Bilbao,Avda. Gabriel Aresti / Bilbao,43.258296,-2.905596,ES:Euskotren:Zone:3:,Bilbao,3,0
EUS-83,Euskotren,ES:Euskotren:Place:2609_Area_A2:,,Avda. Gabriel Aresti / Bilbao,Avda. Gabriel Aresti / Bilbao,43.258296,-2.905596,ES:Euskotren:Zone:3:,Bilbao,3,0
EUS-84,Euskotren,ES:Euskotren:Place:2609_Area_A3:,,Avda. Gabriel Aresti / Bilbao,Avda. Gabriel Aresti / Bilbao,43.258296,-2.905596,ES:Euskotren:Zone:3:,Bilbao,3,0
EUS-85,Euskotren,ES:Euskotren:Place:2609_Area_A4:,,Area A4,Avda. Gabriel Aresti / Bilbao,43.258296,-2.905596,ES:Euskotren:Zone:3:,Bilbao,3,0
EUS-86,Euskotren,ES:Euskotren:Place:2609_Area_A5:,,Area A5,Avda. Gabriel Aresti / Bilbao,43.258296,-2.905596,ES:Euskotren:Zone:3:,Bilbao,3,0
EUS-87,Euskotren,ES:Euskotren:Place:2609_Vestibulo_D1:,,Avda. Gabriel Aresti / Bilbao,Avda. Gabriel Aresti / Bilbao,43.258296,-2.905596,ES:Euskotren:Zone:3:,Bilbao,3,0
EUS-88,Euskotren,ES:Euskotren:Place:2609_Vestibulo_D2:,,Vestibulo D2,Avda. Gabriel Aresti / Bilbao,43.258296,-2.905596,ES:Euskotren:Zone:3:,Bilbao,3,0
EUS-89,Euskotren,ES:Euskotren:Place:2609_Vestibulo_H2:,,Vestibulo H2,Avda. Gabriel Aresti / Bilbao,43.258296,-2.905596,ES:Euskotren:Zone:3:,Bilbao,3,0
EUS-90,Euskotren,ES:Euskotren:Place:2609_Vestibulo_H3:,,Vestibulo H3,Avda. Gabriel Aresti / Bilbao,43.258296,-2.905596,ES:Euskotren:Zone:3:,Bilbao,3,0
EUS-91,Euskotren,ES:Euskotren:Place:2609_Vestibulo_H4:,,Vestibulo H4,Avda. Gabriel Aresti / Bilbao,43.258296,-2.905596,ES:Euskotren:Zone:3:,Bilbao,3,0
EUS-92,Euskotren,ES:Euskotren:Place:2609_vestibulo_H1:,,Avda. Gabriel Aresti / Bilbao,Avda. Gabriel Aresti / Bilbao,43.258296,-2.905596,ES:Euskotren:Zone:3:,Bilbao,3,0
EUS-93,Euskotren,ES:Euskotren:Place:2610_Vestibulo_D1:,,"Avda. Galtzaraborda, s/n / Errenteria","Avda. Galtzaraborda, s/n / Errenteria",43.312434,-1.906913,ES:Euskotren:Zone:42:,Errenteria,3,1
EUS-94,Euskotren,ES:Euskotren:Place:2610_Vestibulo_H1:,,"Avda. Galtzaraborda, s/n / Errenteria","Avda. Galtzaraborda, s/n / Errenteria",43.312434,-1.906913,ES:Euskotren:Zone:42:,Errenteria,3,1
EUS-95,Euskotren,ES:Euskotren:Place:2612_Vestibulo_D1:,,"Barrio Arragua, s/n / Oiartzun","Barrio Arragua, s/n / Oiartzun",43.30853,-1.879715,ES:Euskotren:Zone:42:,Oiartzun,3,1
EUS-96,Euskotren,ES:Euskotren:Place:2612_Vestibulo_D2:,,"Barrio Arragua, s/n / Oiartzun","Barrio Arragua, s/n / Oiartzun",43.30853,-1.879715,ES:Euskotren:Zone:42:,Oiartzun,3,1
EUS-97,Euskotren,ES:Euskotren:Place:2612_Vestibulo_H1:,,"Barrio Arragua, s/n / Oiartzun","Barrio Arragua, s/n / Oiartzun",43.30853,-1.879715,ES:Euskotren:Zone:42:,Oiartzun,3,1
EUS-98,Euskotren,ES:Euskotren:Place:2613_Area_A1:,,"Barrio de San Isidro, 3 / Zestoa","Barrio de San Isidro, 3 / Zestoa",43.278379,-2.270709,ES:Euskotren:Zone:41:,Zestoa,3,1
EUS-99,Euskotren,ES:Euskotren:Place:2614_Area_A1:,,"Barrio de Arteaga, 14 / Derio","Barrio de Arteaga, 14 / Derio",43.290911,-2.886706,ES:Euskotren:Zone:2:,Derio,3,1
EUS-100,Euskotren,ES:Euskotren:Place:2614_Area_A2:,,"Barrio de Arteaga, 14 / Derio","Barrio de Arteaga, 14 / Derio",43.2907,-2.886874,ES:Euskotren:Zone:2:,Derio,3,1
EUS-101,Euskotren,ES:Euskotren:Place:2614_Area_A3:,,"Barrio de Arteaga, 14 / Derio","Barrio de Arteaga, 14 / Derio",43.290757,-2.886862,ES:Euskotren:Zone:2:,Derio,3,1
EUS-102,Euskotren,ES:Euskotren:Place:2614_Area_A4:,,Area 4,"Barrio de Arteaga, 14 / Derio",43.290786,-2.886925,ES:Euskotren:Zone:2:,Derio,3,1
EUS-103,Euskotren,ES:Euskotren:Place:2614_Vestibulo_D1:,,"Barrio de Arteaga, 14 / Derio","Barrio de Arteaga, 14 / Derio",43.290784,-2.886958,ES:Euskotren:Zone:2:,Derio,3,1
EUS-104,Euskotren,ES:Euskotren:Place:2614_Vestibulo_H1:,,"Barrio de Arteaga, 14 / Derio","Barrio de Arteaga, 14 / Derio",43.290775,-2.886922,ES:Euskotren:Zone:2:,Derio,3,1
EUS-105,Euskotren,ES:Euskotren:Place:2615_Area_A1:,,"Barrio de Axpe, 35 / Busturia","Barrio de Axpe, 35 / Busturia",43.38012,-2.692974,ES:Euskotren:Zone:8:,Busturia,3,2
EUS-106,Euskotren,ES:Euskotren:Place:2615_Vestibulo_D1:,,"Barrio de Axpe, 35 / Busturia","Barrio de Axpe, 35 / Busturia",43.38012,-2.692974,ES:Euskotren:Zone:8:,Busturia,3,1
EUS-107,Euskotren,ES:Euskotren:Place:2615_Vestibulo_H1:,,"Barrio de Axpe, 35 / Busturia","Barrio de Axpe, 35 / Busturia",43.38012,-2.692974,ES:Euskotren:Zone:8:,Busturia,3,1
EUS-108,Euskotren,ES:Euskotren:Place:2616_Area_A1:,,"Calle Geltoki, 1 bajo / Mundaka","Calle Geltoki, 1 bajo / Mundaka",43.408842,-2.701078,ES:Euskotren:Zone:8:,Mundaka,3,2
EUS-109,Euskotren,ES:Euskotren:Place:2616_Area_A2:,,"Calle Geltoki, 1 bajo / Mundaka","Calle Geltoki, 1 bajo / Mundaka",43.408842,-2.701078,ES:Euskotren:Zone:8:,Mundaka,3,2
EUS-110,Euskotren,ES:Euskotren:Place:2616_Vestibulo_D1:,,"Calle Geltoki, 1 bajo / Mundaka","Calle Geltoki, 1 bajo / Mundaka",43.408842,-2.701078,ES:Euskotren:Zone:8:,Mundaka,3,1
EUS-111,Euskotren,ES:Euskotren:Place:2616_Vestibulo_H1:,,"Calle Geltoki, 1 bajo / Mundaka","Calle Geltoki, 1 bajo / Mundaka",43.408842,-2.701078,ES:Euskotren:Zone:8:,Mundaka,3,1
EUS-112,Euskotren,ES:Euskotren:Place:2617_Area_A1:,,Calle Zumaia / Bilbao,Calle Zumaia / Bilbao,43.264229,-2.912749,ES:Euskotren:Zone:3:,Bilbao,3,2
EUS-113,Euskotren,ES:Euskotren:Place:2617_Area_A2:,,Calle Zumaia / Bilbao,Calle Zumaia / Bilbao,43.264229,-2.912749,ES:Euskotren:Zone:3:,Bilbao,3,2
EUS-114,Euskotren,ES:Euskotren:Place:2617_Area_A3:,,Calle Zumaia / Bilbao,Calle Zumaia / Bilbao,43.264229,-2.912749,ES:Euskotren:Zone:3:,Bilbao,3,2
EUS-115,Euskotren,ES:Euskotren:Place:2617_Area_A4:,,Area 4,Calle Zumaia / Bilbao,43.264229,-2.912749,ES:Euskotren:Zone:3:,Bilbao,3,1
EUS-116,Euskotren,ES:Euskotren:Place:2617_Area_A5:,,Area 5,Calle Zumaia / Bilbao,43.264229,-2.912749,ES:Euskotren:Zone:3:,Bilbao,3,1
EUS-117,Euskotren,ES:Euskotren:Place:2617_Area_A6:,,Area 6,Calle Zumaia / Bilbao,43.264229,-2.912749,ES:Euskotren:Zone:3:,Bilbao,3,1
EUS-118,Euskotren,ES:Euskotren:Place:2617_Area_A7:,,Area 7,Calle Zumaia / Bilbao,43.264229,-2.912749,ES:Euskotren:Zone:3:,Bilbao,3,1
EUS-119,Euskotren,ES:Euskotren:Place:2617_Vestibulo_D1:,,Calle Zumaia / Bilbao,Calle Zumaia / Bilbao,43.264229,-2.912749,ES:Euskotren:Zone:3:,Bilbao,3,1
EUS-120,Euskotren,ES:Euskotren:Place:2617_Vestibulo_D2:,,Calle Zumaia / Bilbao,Calle Zumaia / Bilbao,43.264229,-2.912749,ES:Euskotren:Zone:3:,Bilbao,3,1
EUS-121,Euskotren,ES:Euskotren:Place:2617_Vestibulo_H1:,,Calle Zumaia / Bilbao,Calle Zumaia / Bilbao,43.264229,-2.912749,ES:Euskotren:Zone:3:,Bilbao,3,1
EUS-122,Euskotren,ES:Euskotren:Place:2617_Vestibulo_H2:,,Calle Zumaia / Bilbao,Calle Zumaia / Bilbao,43.264229,-2.912749,ES:Euskotren:Zone:3:,Bilbao,3,1
EUS-123,Euskotren,ES:Euskotren:Place:2617_Vestibulo_H3:,,Calle Zumaia / Bilbao,Calle Zumaia / Bilbao,43.264229,-2.912749,ES:Euskotren:Zone:3:,Bilbao,3,1
EUS-124,Euskotren,ES:Euskotren:Place:2617_Vestibulo_H4:,,Calle Zumaia / Bilbao,Calle Zumaia / Bilbao,43.264229,-2.912749,ES:Euskotren:Zone:3:,Bilbao,3,1
EUS-125,Euskotren,ES:Euskotren:Place:2617_Vestibulo_H5:,,Calle Zumaia / Bilbao,Calle Zumaia / Bilbao,43.264229,-2.912749,ES:Euskotren:Zone:3:,Bilbao,3,1
EUS-126,Euskotren,ES:Euskotren:Place:2617_Vestibulo_H6:,,Calle Zumaia / Bilbao,Calle Zumaia / Bilbao,43.264229,-2.912749,ES:Euskotren:Zone:3:,Bilbao,3,1
EUS-127,Euskotren,ES:Euskotren:Place:2618_Area_A1:,,"Calle Geltoki, 2 / Durango","Calle Geltoki, 2 / Durango",43.170183,-2.636888,ES:Euskotren:Zone:7:,Durango,3,1
EUS-128,Euskotren,ES:Euskotren:Place:2618_Area_A2:,,"Calle Geltoki, 2 / Durango","Calle Geltoki, 2 / Durango",43.170183,-2.636888,ES:Euskotren:Zone:7:,Durango,3,2
EUS-129,Euskotren,ES:Euskotren:Place:2618_Area_A3:,,"Calle Geltoki, 2 / Durango","Calle Geltoki, 2 / Durango",43.170183,-2.636888,ES:Euskotren:Zone:7:,Durango,3,2
EUS-130,Euskotren,ES:Euskotren:Place:2618_Vestibulo_D2:,,"Calle Geltoki, 2 / Durango","Calle Geltoki, 2 / Durango",43.170183,-2.636888,ES:Euskotren:Zone:7:,Durango,3,1
EUS-131,Euskotren,ES:Euskotren:Place:2618_Vestibulo_H1:,,"Calle Geltoki, 2 / Durango","Calle Geltoki, 2 / Durango",43.170183,-2.636888,ES:Euskotren:Zone:7:,Durango,3,1
EUS-132,Euskotren,ES:Euskotren:Place:2618_Vestibulo_H2:,,"Calle Geltoki, 2 / Durango","Calle Geltoki, 2 / Durango",43.170183,-2.636888,ES:Euskotren:Zone:7:,Durango,3,1
EUS-133,Euskotren,ES:Euskotren:Place:2618_Vestibulo_H3:,,"Calle Geltoki, 2 / Durango","Calle Geltoki, 2 / Durango",43.170183,-2.636888,ES:Euskotren:Zone:7:,Durango,3,1
EUS-134,Euskotren,ES:Euskotren:Place:2619_Area_A1:,,"Estación, 21, bajo / Eibar","Estación, 21, bajo / Eibar",43.187065,-2.465858,ES:Euskotren:Zone:40:,Eibar,3,1
EUS-135,Euskotren,ES:Euskotren:Place:2619_Area_A2:,,"Estación, 21, bajo / Eibar","Estación, 21, bajo / Eibar",43.187065,-2.465858,ES:Euskotren:Zone:40:,Eibar,3,1
EUS-136,Euskotren,ES:Euskotren:Place:2619_Vestibulo_D1:,,"Estación, 21, bajo / Eibar","Estación, 21, bajo / Eibar",43.187065,-2.465858,ES:Euskotren:Zone:40:,Eibar,3,1
EUS-137,Euskotren,ES:Euskotren:Place:2619_Vestibulo_H1:,,"Estación, 21, bajo / Eibar","Estación, 21, bajo / Eibar",43.187065,-2.465858,ES:Euskotren:Zone:40:,Eibar,3,1
EUS-138,Euskotren,ES:Euskotren:Place:2620_Area_A1:,,Barrio de Barroeta / Bedia,Barrio de Barroeta / Bedia,43.206166,-2.798034,ES:Euskotren:Zone:6:,Bedia,3,1
EUS-139,Euskotren,ES:Euskotren:Place:2620_Area_A2:,,Barrio de Barroeta / Bedia,Barrio de Barroeta / Bedia,43.206166,-2.798034,ES:Euskotren:Zone:6:,Bedia,3,1
EUS-140,Euskotren,ES:Euskotren:Place:2620_Area_A3:,,Barrio de Barroeta / Bedia,Barrio de Barroeta / Bedia,43.206166,-2.798034,ES:Euskotren:Zone:6:,Bedia,3,1
EUS-141,Euskotren,ES:Euskotren:Place:2620_Area_A4:,,Area 4,Barrio de Barroeta / Bedia,43.206166,-2.798034,ES:Euskotren:Zone:6:,Bedia,3,1
EUS-142,Euskotren,ES:Euskotren:Place:2620_Vestibulo_D1:,,Barrio de Barroeta / Bedia,Barrio de Barroeta / Bedia,43.206166,-2.798034,ES:Euskotren:Zone:6:,Bedia,3,1
EUS-143,Euskotren,ES:Euskotren:Place:2620_Vestibulo_H1:,,Barrio de Barroeta / Bedia,Barrio de Barroeta / Bedia,43.206166,-2.798034,ES:Euskotren:Zone:6:,Bedia,3,1
EUS-144,Euskotren,ES:Euskotren:Place:2621_Vestibulo_D1:,,Paseo de Lugaritz / Donostia-San Sebastián,Paseo de Lugaritz / Donostia-San Sebastián,43.302646,-2.000204,ES:Euskotren:Zone:42:,Donostia-San Sebastián,3,1
EUS-145,Euskotren,ES:Euskotren:Place:2621_Vestibulo_H1:,,Paseo de Lugaritz / Donostia-San Sebastián,Paseo de Lugaritz / Donostia-San Sebastián,43.302646,-2.000204,ES:Euskotren:Zone:42:,Donostia-San Sebastián,3,1
EUS-146,Euskotren,ES:Euskotren:Place:2622_Area_A1:,,Area,"Trenbide kalea, 14, bajo / Elgoibar",43.213448,-2.415885,ES:Euskotren:Zone:40:,Elgoibar,3,1
EUS-147,Euskotren,ES:Euskotren:Place:2622_Area_A2:,,"Trenbide kalea, 14, bajo / Elgoibar","Trenbide kalea, 14, bajo / Elgoibar",43.213448,-2.415885,ES:Euskotren:Zone:40:,Elgoibar,3,1
EUS-148,Euskotren,ES:Euskotren:Place:2622_Area_A3:,,"Trenbide kalea, 14, bajo / Elgoibar","Trenbide kalea, 14, bajo / Elgoibar",43.213448,-2.415885,ES:Euskotren:Zone:40:,Elgoibar,3,1
EUS-149,Euskotren,ES:Euskotren:Place:2622_Vestibulo_D2:,,Atondoa (geltokikoa),"Trenbide kalea, 14, bajo / Elgoibar",43.213448,-2.415885,ES:Euskotren:Zone:40:,Elgoibar,3,1
EUS-150,Euskotren,ES:Euskotren:Place:2622_Vestibulo_H1:,,Atondoa (kanpokoa),"Trenbide kalea, 14, bajo / Elgoibar",43.213448,-2.415885,ES:Euskotren:Zone:40:,Elgoibar,3,1
EUS-151,Euskotren,ES:Euskotren:Place:2622_Vestibulo_H2:,,Atondoa (geltokikoa),"Trenbide kalea, 14, bajo / Elgoibar",43.213448,-2.415885,ES:Euskotren:Zone:40:,Elgoibar,3,1
EUS-152,Euskotren,ES:Euskotren:Place:2624_Vestibulo_D1:,,"Avd. Jose Elosegi, 297 / Donostia-San Sebastián","Avd. Jose Elosegi, 297 / Donostia-San Sebastián",43.320059,-1.937832,ES:Euskotren:Zone:42:,Donostia-San Sebastián,3,1
EUS-153,Euskotren,ES:Euskotren:Place:2624_Vestibulo_H1:,,"Avd. Jose Elosegi, 297 / Donostia-San Sebastián","Avd. Jose Elosegi, 297 / Donostia-San Sebastián",43.320059,-1.937832,ES:Euskotren:Zone:42:,Donostia-San Sebastián,3,1
EUS-154,Euskotren,ES:Euskotren:Place:2625_Area_A1:,,Avda. Fanderia / Errenteria,Avda. Fanderia / Errenteria,43.308241,-1.889394,ES:Euskotren:Zone:42:,Errenteria,3,1
EUS-155,Euskotren,ES:Euskotren:Place:2625_Vestibulo_D2:,,Avda. Fanderia / Errenteria,Avda. Fanderia / Errenteria,43.308227,-1.889402,ES:Euskotren:Zone:42:,Errenteria,3,1
EUS-156,Euskotren,ES:Euskotren:Place:2625_Vestibulo_H1:,,Avda. Fanderia / Errenteria,Avda. Fanderia / Errenteria,43.308227,-1.889402,ES:Euskotren:Zone:42:,Errenteria,3,1
EUS-157,Euskotren,ES:Euskotren:Place:2625_Vestibulo_H2:,,Avda. Fanderia / Errenteria,Avda. Fanderia / Errenteria,43.308227,-1.889402,ES:Euskotren:Zone:42:,Errenteria,3,1
EUS-158,Euskotren,ES:Euskotren:Place:2629_Vestibulo_D1:,,Camino de Molinaga / Loiu,Camino de Molinaga / Loiu,43.294457,-2.905544,ES:Euskotren:Zone:2:,Loiu,3,1
EUS-159,Euskotren,ES:Euskotren:Place:2629_Vestibulo_H1:,,Camino de Molinaga / Loiu,Camino de Molinaga / Loiu,43.294461,-2.905488,ES:Euskotren:Zone:2:,Loiu,3,1
EUS-160,Euskotren,ES:Euskotren:Place:2631_Area_A1:,,"Paseo de Larratxo, 95 / Donostia-San Sebastián","Paseo de Larratxo, 95 / Donostia-San Sebastián",43.316674,-1.929814,ES:Euskotren:Zone:42:,Donostia-San Sebastián,3,2
EUS-161,Euskotren,ES:Euskotren:Place:2631_Area_A2:,,"Paseo de Larratxo, 95 / Donostia-San Sebastián","Paseo de Larratxo, 95 / Donostia-San Sebastián",43.316674,-1.929814,ES:Euskotren:Zone:42:,Donostia-San Sebastián,3,2
EUS-162,Euskotren,ES:Euskotren:Place:2631_Area_A3:,,"Paseo de Larratxo, 95 / Donostia-San Sebastián","Paseo de Larratxo, 95 / Donostia-San Sebastián",43.316674,-1.929814,ES:Euskotren:Zone:42:,Donostia-San Sebastián,3,2
EUS-163,Euskotren,ES:Euskotren:Place:2631_Area_A4:,,Area 4,"Paseo de Larratxo, 95 / Donostia-San Sebastián",43.316674,-1.929814,ES:Euskotren:Zone:42:,Donostia-San Sebastián,3,2
EUS-164,Euskotren,ES:Euskotren:Place:2631_Vestibulo_D1:,,"Paseo de Larratxo, 95 / Donostia-San Sebastián","Paseo de Larratxo, 95 / Donostia-San Sebastián",43.316674,-1.929814,ES:Euskotren:Zone:42:,Donostia-San Sebastián,3,2
EUS-165,Euskotren,ES:Euskotren:Place:2631_Vestibulo_D2:,,"Paseo de Larratxo, 95 / Donostia-San Sebastián","Paseo de Larratxo, 95 / Donostia-San Sebastián",43.316674,-1.929814,ES:Euskotren:Zone:42:,Donostia-San Sebastián,3,1
EUS-166,Euskotren,ES:Euskotren:Place:2631_Vestibulo_H1:,,"Paseo de Larratxo, 95 / Donostia-San Sebastián","Paseo de Larratxo, 95 / Donostia-San Sebastián",43.316674,-1.929814,ES:Euskotren:Zone:42:,Donostia-San Sebastián,3,2
EUS-167,Euskotren,ES:Euskotren:Place:2631_Vestibulo_H2:,,"Paseo de Larratxo, 95 / Donostia-San Sebastián","Paseo de Larratxo, 95 / Donostia-San Sebastián",43.316674,-1.929814,ES:Euskotren:Zone:42:,Donostia-San Sebastián,3,1
EUS-168,Euskotren,ES:Euskotren:Place:2632_Area_A1:,,Avda. Elizatxo / Irun,Avda. Elizatxo / Irun,43.330444,-1.816976,ES:Euskotren:Zone:43:,Irun,3,1
EUS-169,Euskotren,ES:Euskotren:Place:2632_Area_A2:,,Avda. Elizatxo / Irun,Avda. Elizatxo / Irun,43.330444,-1.816976,ES:Euskotren:Zone:43:,Irun,3,1
EUS-170,Euskotren,ES:Euskotren:Place:2632_Vestibulo_H1:,,Avda. Elizatxo / Irun,Avda. Elizatxo / Irun,43.330444,-1.816976,ES:Euskotren:Zone:43:,Irun,3,1
EUS-171,Euskotren,ES:Euskotren:Place:2633_Area_A1:,,"Plaza Arakistain, 6 / Deba","Plaza Arakistain, 6 / Deba",43.294308,-2.355492,ES:Euskotren:Zone:40:,Deba,3,1
EUS-172,Euskotren,ES:Euskotren:Place:2633_Vestibulo_D1:,,"Plaza Arakistain, 6 / Deba","Plaza Arakistain, 6 / Deba",43.293681,-2.355604,ES:Euskotren:Zone:40:,Deba,3,1
EUS-173,Euskotren,ES:Euskotren:Place:2633_Vestibulo_H1:,,"Plaza Arakistain, 6 / Deba","Plaza Arakistain, 6 / Deba",43.293681,-2.355604,ES:Euskotren:Zone:40:,Deba,3,1
EUS-174,Euskotren,ES:Euskotren:Place:2635_Vestibulo_H1:,,Calle de Amaña / Eibar,Calle de Amaña / Eibar,43.184872,-2.479785,ES:Euskotren:Zone:40:,Eibar,3,1
EUS-175,Euskotren,ES:Euskotren:Place:2636_Vestibulo_D1:,,Calle de los Balleneros / Irun,Calle de los Balleneros / Irun,43.336518,-1.803734,ES:Euskotren:Zone:43:,Irun,3,1
EUS-176,Euskotren,ES:Euskotren:Place:2636_Vestibulo_H1:,,Calle de los Balleneros / Irun,Calle de los Balleneros / Irun,43.336518,-1.803734,ES:Euskotren:Zone:43:,Irun,3,1
EUS-177,Euskotren,ES:Euskotren:Place:2637_Vestibulo_D1:,,"Calle Sabino Arana, 42, bajo / Amorebieta-Etxano","Calle Sabino Arana, 42, bajo / Amorebieta-Etxano",43.216576,-2.736155,ES:Euskotren:Zone:6:,Amorebieta-Etxano,3,1
EUS-178,Euskotren,ES:Euskotren:Place:2637_Vestibulo_H1:,,"Calle Sabino Arana, 42, bajo / Amorebieta-Etxano","Calle Sabino Arana, 42, bajo / Amorebieta-Etxano",43.216576,-2.736155,ES:Euskotren:Zone:6:,Amorebieta-Etxano,3,1
EUS-179,Euskotren,ES:Euskotren:Place:2638_Area_A1:,,"Barrio de Aretxalde,156 / Lezama","Barrio de Aretxalde,156 / Lezama",43.276579,-2.846327,ES:Euskotren:Zone:2:,Lezama,3,1
EUS-180,Euskotren,ES:Euskotren:Place:2638_Area_A2:,,"Barrio de Aretxalde,156 / Lezama","Barrio de Aretxalde,156 / Lezama",43.276579,-2.846327,ES:Euskotren:Zone:2:,Lezama,3,1
EUS-181,Euskotren,ES:Euskotren:Place:2638_Area_A3:,,"Barrio de Aretxalde,156 / Lezama","Barrio de Aretxalde,156 / Lezama",43.276579,-2.846327,ES:Euskotren:Zone:2:,Lezama,3,1
EUS-182,Euskotren,ES:Euskotren:Place:2638_Vestibulo_D1:,,"Barrio de Aretxalde,156 / Lezama","Barrio de Aretxalde,156 / Lezama",43.276482,-2.846036,ES:Euskotren:Zone:2:,Lezama,3,1
EUS-183,Euskotren,ES:Euskotren:Place:2638_Vestibulo_D2:,,"Barrio de Aretxalde,156 / Lezama","Barrio de Aretxalde,156 / Lezama",43.276453,-2.84618,ES:Euskotren:Zone:2:,Lezama,3,1
EUS-184,Euskotren,ES:Euskotren:Place:2638_Vestibulo_H1:,,"Barrio de Aretxalde,156 / Lezama","Barrio de Aretxalde,156 / Lezama",43.276501,-2.846,ES:Euskotren:Zone:2:,Lezama,3,1
EUS-185,Euskotren,ES:Euskotren:Place:2638_Vestibulo_H2:,,"Barrio de Aretxalde,156 / Lezama","Barrio de Aretxalde,156 / Lezama",43.276429,-2.84614,ES:Euskotren:Zone:2:,Lezama,3,1
EUS-186,Euskotren,ES:Euskotren:Place:2639_Area_A1:,,"C/ Bernar Etxepare, 33 / Etxebarri","C/ Bernar Etxepare, 33 / Etxebarri",43.250278,-2.889793,ES:Euskotren:Zone:18:,Etxebarri,3,1
EUS-187,Euskotren,ES:Euskotren:Place:2639_Area_A2:,,"C/ Bernar Etxepare, 33 / Etxebarri","C/ Bernar Etxepare, 33 / Etxebarri",43.250278,-2.889793,ES:Euskotren:Zone:18:,Etxebarri,3,1
EUS-188,Euskotren,ES:Euskotren:Place:2639_Vestibulo_D1:,,"C/ Bernar Etxepare, 33 / Etxebarri","C/ Bernar Etxepare, 33 / Etxebarri",43.250278,-2.889793,ES:Euskotren:Zone:18:,Etxebarri,3,1
EUS-189,Euskotren,ES:Euskotren:Place:2639_Vestibulo_H1:,,"C/ Bernar Etxepare, 33 / Etxebarri","C/ Bernar Etxepare, 33 / Etxebarri",43.250278,-2.889793,ES:Euskotren:Zone:18:,Etxebarri,3,1
EUS-190,Euskotren,ES:Euskotren:Place:2640_Area_A1:,,"Calle de Barrena, 9-11 / Eibar","Calle de Barrena, 9-11 / Eibar",43.190078,-2.456818,ES:Euskotren:Zone:40:,Eibar,3,1
EUS-191,Euskotren,ES:Euskotren:Place:2640_Area_A2:,,"Calle de Barrena, 9-11 / Eibar","Calle de Barrena, 9-11 / Eibar",43.190078,-2.456818,ES:Euskotren:Zone:40:,Eibar,3,1
EUS-192,Euskotren,ES:Euskotren:Place:2640_Vestibulo_D1:,,"Calle de Barrena, 9-11 / Eibar","Calle de Barrena, 9-11 / Eibar",43.190078,-2.456818,ES:Euskotren:Zone:40:,Eibar,3,1
EUS-193,Euskotren,ES:Euskotren:Place:2640_Vestibulo_H1:,,"Calle de Barrena, 9-11 / Eibar","Calle de Barrena, 9-11 / Eibar",43.190078,-2.456818,ES:Euskotren:Zone:40:,Eibar,3,1
EUS-194,Euskotren,ES:Euskotren:Place:2641_Area_A10:,,Area 10,Calle Trauko / Bilbao,43.266825,-2.919685,ES:Euskotren:Zone:3:,Bilbao,3,2
EUS-195,Euskotren,ES:Euskotren:Place:2641_Area_A1:,,Calle Trauko / Bilbao,Calle Trauko / Bilbao,43.265546,-2.920575,ES:Euskotren:Zone:3:,Bilbao,3,1
EUS-196,Euskotren,ES:Euskotren:Place:2641_Area_A2:,,Calle Trauko / Bilbao,Calle Trauko / Bilbao,43.266825,-2.919685,ES:Euskotren:Zone:3:,Bilbao,3,1
EUS-197,Euskotren,ES:Euskotren:Place:2641_Area_A3:,,Calle Trauko / Bilbao,Calle Trauko / Bilbao,43.266825,-2.919685,ES:Euskotren:Zone:3:,Bilbao,3,2
EUS-198,Euskotren,ES:Euskotren:Place:2641_Area_A4:,,Area 4,Calle Trauko / Bilbao,43.266825,-2.919685,ES:Euskotren:Zone:3:,Bilbao,3,1
EUS-199,Euskotren,ES:Euskotren:Place:2641_Area_A5:,,Area 5,Calle Trauko / Bilbao,43.266825,-2.919685,ES:Euskotren:Zone:3:,Bilbao,3,1
EUS-200,Euskotren,ES:Euskotren:Place:2641_Area_A6:,,Area 6,Calle Trauko / Bilbao,43.266825,-2.919685,ES:Euskotren:Zone:3:,Bilbao,3,2
EUS-201,Euskotren,ES:Euskotren:Place:2641_Area_A7:,,Area 7,Calle Trauko / Bilbao,43.266825,-2.919685,ES:Euskotren:Zone:3:,Bilbao,3,1
EUS-202,Euskotren,ES:Euskotren:Place:2641_Area_A8:,,Area 8,Calle Trauko / Bilbao,43.266825,-2.919685,ES:Euskotren:Zone:3:,Bilbao,3,2
EUS-203,Euskotren,ES:Euskotren:Place:2641_Area_A9:,,Area 9,Calle Trauko / Bilbao,43.266825,-2.919685,ES:Euskotren:Zone:3:,Bilbao,3,2
EUS-204,Euskotren,ES:Euskotren:Place:2641_Vestibulo_D1:,,Calle Trauko / Bilbao,Calle Trauko / Bilbao,43.266825,-2.919685,ES:Euskotren:Zone:3:,Bilbao,3,1
EUS-205,Euskotren,ES:Euskotren:Place:2641_Vestibulo_D2:,,Calle Trauko / Bilbao,Calle Trauko / Bilbao,43.266825,-2.919685,ES:Euskotren:Zone:3:,Bilbao,3,2
EUS-206,Euskotren,ES:Euskotren:Place:2641_Vestibulo_H1:,,Calle Trauko / Bilbao,Calle Trauko / Bilbao,43.266825,-2.919685,ES:Euskotren:Zone:3:,Bilbao,3,1
EUS-207,Euskotren,ES:Euskotren:Place:2641_Vestibulo_H2:,,Calle Trauko / Bilbao,Calle Trauko / Bilbao,43.266825,-2.919685,ES:Euskotren:Zone:3:,Bilbao,3,2
EUS-208,Euskotren,ES:Euskotren:Place:2641_Vestibulo_H3:,,Calle Trauko / Bilbao,Calle Trauko / Bilbao,43.266825,-2.919685,ES:Euskotren:Zone:3:,Bilbao,3,1
EUS-209,Euskotren,ES:Euskotren:Place:2641_Vestibulo_H4:,,Calle Trauko / Bilbao,Calle Trauko / Bilbao,43.266825,-2.919685,ES:Euskotren:Zone:3:,Bilbao,3,1
EUS-210,Euskotren,ES:Euskotren:Place:2642_Vestibulo_D1:,,Mikel Zarate Plaza / Zamudio,Mikel Zarate Plaza / Zamudio,43.284349,-2.864819,ES:Euskotren:Zone:2:,Zamudio,3,1
EUS-211,Euskotren,ES:Euskotren:Place:2642_Vestibulo_H1:,,Mikel Zarate Plaza / Zamudio,Mikel Zarate Plaza / Zamudio,43.284377,-2.864805,ES:Euskotren:Zone:2:,Zamudio,3,1
EUS-212,Euskotren,ES:Euskotren:Place:2645_Area_A1:,,"Plaza estación, s/n bajo / Gernika-Lumo","Plaza estación, s/n bajo / Gernika-Lumo",43.314515,-2.675856,ES:Euskotren:Zone:8:,Gernika-Lumo,3,1
EUS-213,Euskotren,ES:Euskotren:Place:2645_Area_A2:,,"Plaza estación, s/n bajo / Gernika-Lumo","Plaza estación, s/n bajo / Gernika-Lumo",43.314515,-2.675856,ES:Euskotren:Zone:8:,Gernika-Lumo,3,1
EUS-214,Euskotren,ES:Euskotren:Place:2645_Area_A3:,,"Plaza estación, s/n bajo / Gernika-Lumo","Plaza estación, s/n bajo / Gernika-Lumo",43.314515,-2.675856,ES:Euskotren:Zone:8:,Gernika-Lumo,3,1
EUS-215,Euskotren,ES:Euskotren:Place:2645_Vestibulo_H1:,,"Plaza estación, s/n bajo / Gernika-Lumo","Plaza estación, s/n bajo / Gernika-Lumo",43.314416,-2.676147,ES:Euskotren:Zone:8:,Gernika-Lumo,3,1
EUS-216,Euskotren,ES:Euskotren:Place:2645_Vestibulo_H2:,,"Plaza estación, s/n bajo / Gernika-Lumo","Plaza estación, s/n bajo / Gernika-Lumo",43.314566,-2.676087,ES:Euskotren:Zone:8:,Gernika-Lumo,3,1
EUS-217,Euskotren,ES:Euskotren:Place:2646_Area_A1:,,"Avd. Cervantes, 8 bajo / Basauri","Avd. Cervantes, 8 bajo / Basauri",43.24048,-2.879442,ES:Euskotren:Zone:4:,Basauri,3,2
EUS-218,Euskotren,ES:Euskotren:Place:2647_Area_A1:,,"Avd. de Añorga, 12 / Donostia-San Sebastián","Avd. de Añorga, 12 / Donostia-San Sebastián",43.29149,-1.994667,ES:Euskotren:Zone:42:,Donostia-San Sebastián,3,1
EUS-219,Euskotren,ES:Euskotren:Place:2647_Area_A2:,,"Avd. de Añorga, 12 / Donostia-San Sebastián","Avd. de Añorga, 12 / Donostia-San Sebastián",43.29149,-1.994667,ES:Euskotren:Zone:42:,Donostia-San Sebastián,3,2
EUS-220,Euskotren,ES:Euskotren:Place:2647_Vestibulo_D1:,,"Avd. de Añorga, 12 / Donostia-San Sebastián","Avd. de Añorga, 12 / Donostia-San Sebastián",43.291369,-1.99439,ES:Euskotren:Zone:42:,Donostia-San Sebastián,3,1
EUS-221,Euskotren,ES:Euskotren:Place:2647_Vestibulo_H1:,,"Avd. de Añorga, 12 / Donostia-San Sebastián","Avd. de Añorga, 12 / Donostia-San Sebastián",43.291369,-1.99439,ES:Euskotren:Zone:42:,Donostia-San Sebastián,3,1
EUS-222,Euskotren,ES:Euskotren:Place:2648_Area_A1:,,Plaza Sagastieder / Donostia-San Sebastián,Plaza Sagastieder / Donostia-San Sebastián,43.314918,-1.954765,ES:Euskotren:Zone:42:,Donostia-San Sebastián,3,2
EUS-223,Euskotren,ES:Euskotren:Place:2648_Area_A2:,,Plaza Sagastieder / Donostia-San Sebastián,Plaza Sagastieder / Donostia-San Sebastián,43.314918,-1.954765,ES:Euskotren:Zone:42:,Donostia-San Sebastián,3,2
EUS-224,Euskotren,ES:Euskotren:Place:2648_Area_A3:,,Plaza Sagastieder / Donostia-San Sebastián,Plaza Sagastieder / Donostia-San Sebastián,43.314918,-1.954765,ES:Euskotren:Zone:42:,Donostia-San Sebastián,3,2
EUS-225,Euskotren,ES:Euskotren:Place:2648_Area_A4:,,Area 4,Plaza Sagastieder / Donostia-San Sebastián,43.314918,-1.954765,ES:Euskotren:Zone:42:,Donostia-San Sebastián,3,2
EUS-226,Euskotren,ES:Euskotren:Place:2648_Area_A5:,,Area 5,Plaza Sagastieder / Donostia-San Sebastián,43.314918,-1.954765,ES:Euskotren:Zone:42:,Donostia-San Sebastián,3,2
EUS-227,Euskotren,ES:Euskotren:Place:2648_Area_A6:,,Area 6,Plaza Sagastieder / Donostia-San Sebastián,43.314918,-1.954765,ES:Euskotren:Zone:42:,Donostia-San Sebastián,3,2
EUS-228,Euskotren,ES:Euskotren:Place:2648_Vestibulo_D1:,,Sagastieder mezzanina,Plaza Sagastieder / Donostia-San Sebastián,43.314918,-1.954765,ES:Euskotren:Zone:42:,Donostia-San Sebastián,3,1
EUS-229,Euskotren,ES:Euskotren:Place:2648_Vestibulo_D2:,,Zarategi mezzanina,Plaza Sagastieder / Donostia-San Sebastián,43.314918,-1.954765,ES:Euskotren:Zone:42:,Donostia-San Sebastián,3,1
EUS-230,Euskotren,ES:Euskotren:Place:2648_Vestibulo_H1:,,Sagastieder mezzanina,Plaza Sagastieder / Donostia-San Sebastián,43.314918,-1.954765,ES:Euskotren:Zone:42:,Donostia-San Sebastián,3,1
EUS-231,Euskotren,ES:Euskotren:Place:2648_Vestibulo_H2:,,Zarategi mezzanina,Plaza Sagastieder / Donostia-San Sebastián,43.314918,-1.954765,ES:Euskotren:Zone:42:,Donostia-San Sebastián,3,1
EUS-232,Euskotren,ES:Euskotren:Place:2649_Vestibulo_H1:,,Avda. de Iparralde / Irun,Avda. de Iparralde / Irun,43.349479,-1.786391,ES:Euskotren:Zone:43:,Irun,3,1
EUS-233,Euskotren,ES:Euskotren:Place:2649_Vestibulo_H2:,,Avda. de Iparralde / Irun,Avda. de Iparralde / Irun,43.349479,-1.786391,ES:Euskotren:Zone:43:,Irun,3,1
EUS-234,Euskotren,ES:Euskotren:Place:2650_Area_A1:,,"Calle de José María Linazasoro, 9-11 / Mendaro","Calle de José María Linazasoro, 9-11 / Mendaro",43.252268,-2.388089,ES:Euskotren:Zone:40:,Mendaro,3,1
EUS-235,Euskotren,ES:Euskotren:Place:2650_Area_A2:,,"Calle de José María Linazasoro, 9-11 / Mendaro","Calle de José María Linazasoro, 9-11 / Mendaro",43.252268,-2.388089,ES:Euskotren:Zone:40:,Mendaro,3,1
EUS-236,Euskotren,ES:Euskotren:Place:2650_Vestibulo_D1:,,"Calle de José María Linazasoro, 9-11 / Mendaro","Calle de José María Linazasoro, 9-11 / Mendaro",43.252268,-2.388089,ES:Euskotren:Zone:40:,Mendaro,3,1
EUS-237,Euskotren,ES:Euskotren:Place:2650_Vestibulo_H1:,,"Calle de José María Linazasoro, 9-11 / Mendaro","Calle de José María Linazasoro, 9-11 / Mendaro",43.252268,-2.388089,ES:Euskotren:Zone:40:,Mendaro,3,1
EUS-238,Euskotren,ES:Euskotren:Place:2651_Area_A1:,,Autovía del Norte / Donostia-San Sebastián,Autovía del Norte / Donostia-San Sebastián,43.278965,-2.006861,ES:Euskotren:Zone:42:,Donostia-San Sebastián,3,1
EUS-239,Euskotren,ES:Euskotren:Place:2651_Area_A2:,,Autovía del Norte / Donostia-San Sebastián,Autovía del Norte / Donostia-San Sebastián,43.278965,-2.006861,ES:Euskotren:Zone:42:,Donostia-San Sebastián,3,1
EUS-240,Euskotren,ES:Euskotren:Place:2651_Area_A3:,,Autovía del Norte / Donostia-San Sebastián,Autovía del Norte / Donostia-San Sebastián,43.278965,-2.006861,ES:Euskotren:Zone:42:,Donostia-San Sebastián,3,2
EUS-241,Euskotren,ES:Euskotren:Place:2651_Vestibulo_H1:,,Autovía del Norte / Donostia-San Sebastián,Autovía del Norte / Donostia-San Sebastián,43.278965,-2.006861,ES:Euskotren:Zone:42:,Donostia-San Sebastián,3,1
EUS-242,Euskotren,ES:Euskotren:Place:2652_Vestibulo_D1:,,"Barrio de San Antolín, 27 / Zamudio","Barrio de San Antolín, 27 / Zamudio",43.286647,-2.874218,ES:Euskotren:Zone:2:,Zamudio,3,1
EUS-243,Euskotren,ES:Euskotren:Place:2652_Vestibulo_H1:,,"Barrio de San Antolín, 27 / Zamudio","Barrio de San Antolín, 27 / Zamudio",43.286672,-2.874187,ES:Euskotren:Zone:2:,Zamudio,3,1
EUS-244,Euskotren,ES:Euskotren:Place:2653_Area_A1:,,"Calle de Erribera, 25 / Usurbil","Calle de Erribera, 25 / Usurbil",43.268642,-2.053019,ES:Euskotren:Zone:42:,Usurbil,3,1
EUS-245,Euskotren,ES:Euskotren:Place:2653_Area_A2:,,"Calle de Erribera, 25 / Usurbil","Calle de Erribera, 25 / Usurbil",43.268642,-2.053019,ES:Euskotren:Zone:42:,Usurbil,3,1
EUS-246,Euskotren,ES:Euskotren:Place:2653_Vestibulo_H1:,,Átondoa,"Calle de Erribera, 25 / Usurbil",43.268642,-2.053019,ES:Euskotren:Zone:42:,Usurbil,3,1
EUS-247,Euskotren,ES:Euskotren:Place:2654_Area_A1:,,Carretera Madrid-Irún / Lezo,Carretera Madrid-Irún / Lezo,43.326705,-1.857721,ES:Euskotren:Zone:42:,Lezo,3,2
EUS-248,Euskotren,ES:Euskotren:Place:2654_Area_A2:,,Carretera Madrid-Irún / Lezo,Carretera Madrid-Irún / Lezo,43.326705,-1.857721,ES:Euskotren:Zone:42:,Lezo,3,2
EUS-249,Euskotren,ES:Euskotren:Place:2655_Vestibulo_H1:,,"Barrio de Okango, 31 / Zaldibar","Barrio de Okango, 31 / Zaldibar",43.169738,-2.552209,ES:Euskotren:Zone:7:,Zaldibar,3,1
EUS-250,Euskotren,ES:Euskotren:Place:2656_Area_A1:,,Plaza Untzaga / Eibar,Plaza Untzaga / Eibar,43.184564,-2.47457,ES:Euskotren:Zone:40:,Eibar,3,1
EUS-251,Euskotren,ES:Euskotren:Place:2656_Vestibulo_D1:,,Plaza Untzaga / Eibar,Plaza Untzaga / Eibar,43.184564,-2.47457,ES:Euskotren:Zone:40:,Eibar,3,1
EUS-252,Euskotren,ES:Euskotren:Place:2656_Vestibulo_H1:,,Plaza Untzaga / Eibar,Plaza Untzaga / Eibar,43.184564,-2.47457,ES:Euskotren:Zone:40:,Eibar,3,1
EUS-253,Euskotren,ES:Euskotren:Place:2657_Area_A1:,,"Barrio de Zugastieta, 25 / Muxika","Barrio de Zugastieta, 25 / Muxika",43.252053,-2.692753,ES:Euskotren:Zone:8:,Muxika,3,1
EUS-254,Euskotren,ES:Euskotren:Place:2657_Area_A2:,,"Barrio de Zugastieta, 25 / Muxika","Barrio de Zugastieta, 25 / Muxika",43.252053,-2.692753,ES:Euskotren:Zone:8:,Muxika,3,1
EUS-255,Euskotren,ES:Euskotren:Place:2657_Area_A3:,,"Barrio de Zugastieta, 25 / Muxika","Barrio de Zugastieta, 25 / Muxika",43.252053,-2.692753,ES:Euskotren:Zone:8:,Muxika,3,1
EUS-256,Euskotren,ES:Euskotren:Place:2658_Vestibulo_H1:,,"Av de Pedro Muguruza, 6-8 / Elgoibar","Av de Pedro Muguruza, 6-8 / Elgoibar",43.217761,-2.408572,ES:Euskotren:Zone:40:,Elgoibar,3,1
EUS-257,Euskotren,ES:Euskotren:Place:2661_Area_A1:,,"Calle de Oletxe, 48 / Usansolo","Calle de Oletxe, 48 / Usansolo",43.217729,-2.821741,ES:Euskotren:Zone:4:,Usansolo,3,1
EUS-258,Euskotren,ES:Euskotren:Place:2661_Area_A2:,,"Calle de Oletxe, 48 / Usansolo","Calle de Oletxe, 48 / Usansolo",43.217729,-2.821741,ES:Euskotren:Zone:4:,Usansolo,3,1
EUS-259,Euskotren,ES:Euskotren:Place:2661_Vestibulo_D1:,,"Calle de Oletxe, 48 / Usansolo","Calle de Oletxe, 48 / Usansolo",43.217729,-2.821741,ES:Euskotren:Zone:4:,Usansolo,3,1
EUS-260,Euskotren,ES:Euskotren:Place:2663_Area_A1:,,Avda. Pau Casals / Bilbao,Avda. Pau Casals / Bilbao,43.258567,-2.897474,ES:Euskotren:Zone:3:,Bilbao,3,2
EUS-261,Euskotren,ES:Euskotren:Place:2663_Area_A2:,,Avda. Pau Casals / Bilbao,Avda. Pau Casals / Bilbao,43.258567,-2.897474,ES:Euskotren:Zone:3:,Bilbao,3,2
EUS-262,Euskotren,ES:Euskotren:Place:2663_Area_A3:,,Avda. Pau Casals / Bilbao,Avda. Pau Casals / Bilbao,43.258567,-2.897474,ES:Euskotren:Zone:3:,Bilbao,3,2
EUS-263,Euskotren,ES:Euskotren:Place:2663_Area_A4:,,Area 4,Avda. Pau Casals / Bilbao,43.258567,-2.897474,ES:Euskotren:Zone:3:,Bilbao,3,1
EUS-264,Euskotren,ES:Euskotren:Place:2663_Area_A5:,,Area 5,Avda. Pau Casals / Bilbao,43.258567,-2.897474,ES:Euskotren:Zone:3:,Bilbao,3,2
EUS-265,Euskotren,ES:Euskotren:Place:2663_Area_A6:,,Area 6,Avda. Pau Casals / Bilbao,43.258567,-2.897474,ES:Euskotren:Zone:3:,Bilbao,3,2
EUS-266,Euskotren,ES:Euskotren:Place:2663_Vestibulo_D1:,,Avda. Pau Casals / Bilbao,Avda. Pau Casals / Bilbao,43.258567,-2.897474,ES:Euskotren:Zone:3:,Bilbao,3,1
EUS-267,Euskotren,ES:Euskotren:Place:2663_Vestibulo_D2:,,Avda. Pau Casals / Bilbao,Avda. Pau Casals / Bilbao,43.258567,-2.897474,ES:Euskotren:Zone:3:,Bilbao,3,2
EUS-268,Euskotren,ES:Euskotren:Place:2663_Vestibulo_H1:,,Avda. Pau Casals / Bilbao,Avda. Pau Casals / Bilbao,43.258567,-2.897474,ES:Euskotren:Zone:3:,Bilbao,3,1
EUS-269,Euskotren,ES:Euskotren:Place:2663_Vestibulo_H2:,,Avda. Pau Casals / Bilbao,Avda. Pau Casals / Bilbao,43.258567,-2.897474,ES:Euskotren:Zone:3:,Bilbao,3,2
EUS-270,Euskotren,ES:Euskotren:Place:2663_Vestibulo_H3:,,Avda. Pau Casals / Bilbao,Avda. Pau Casals / Bilbao,43.258567,-2.897474,ES:Euskotren:Zone:3:,Bilbao,3,1
EUS-271,Euskotren,ES:Euskotren:Place:2663_Vestibulo_H4:,,Avda. Pau Casals / Bilbao,Avda. Pau Casals / Bilbao,43.258567,-2.897474,ES:Euskotren:Zone:3:,Bilbao,3,1
EUS-272,Euskotren,ES:Euskotren:Place:2664_Vestibulo_D1:,,"Calle de Lapurdi, 2, bajo / Zarautz","Calle de Lapurdi, 2, bajo / Zarautz",43.284187,-2.170854,ES:Euskotren:Zone:41:,Zarautz,3,1
EUS-273,Euskotren,ES:Euskotren:Place:2664_Vestibulo_H1:,,"Calle de Lapurdi, 2, bajo / Zarautz","Calle de Lapurdi, 2, bajo / Zarautz",43.284187,-2.170854,ES:Euskotren:Zone:41:,Zarautz,3,1
EUS-274,Euskotren,ES:Euskotren:Place:2665_Area_A1:,,"Avda. Pablo Iglesias, 16 / Errenteria","Avda. Pablo Iglesias, 16 / Errenteria",43.311197,-1.899344,ES:Euskotren:Zone:42:,Errenteria,3,1
EUS-275,Euskotren,ES:Euskotren:Place:2665_Area_A2:,,"Avda. Pablo Iglesias, 16 / Errenteria","Avda. Pablo Iglesias, 16 / Errenteria",43.311197,-1.899344,ES:Euskotren:Zone:42:,Errenteria,3,1
EUS-276,Euskotren,ES:Euskotren:Place:2665_Vestibulo_D1:,,"Avda. Pablo Iglesias, 16 / Errenteria","Avda. Pablo Iglesias, 16 / Errenteria",43.311197,-1.899344,ES:Euskotren:Zone:42:,Errenteria,3,1
EUS-277,Euskotren,ES:Euskotren:Place:2665_Vestibulo_H1:,,"Avda. Pablo Iglesias, 16 / Errenteria","Avda. Pablo Iglesias, 16 / Errenteria",43.311197,-1.899344,ES:Euskotren:Zone:42:,Errenteria,3,1
EUS-278,Euskotren,ES:Euskotren:Place:2666_Vestibulo_D1:,,"Calle Izelaieta, 21 / Ermua","Calle Izelaieta, 21 / Ermua",43.184656,-2.501242,ES:Euskotren:Zone:40:,Ermua,3,1
EUS-279,Euskotren,ES:Euskotren:Place:2666_Vestibulo_H1:,,"Calle Izelaieta, 21 / Ermua","Calle Izelaieta, 21 / Ermua",43.184656,-2.501242,ES:Euskotren:Zone:40:,Ermua,3,1
EUS-280,Euskotren,ES:Euskotren:Place:2667_Area_A1:,,"Zumalakarregi kalea, 8 / Pasaia","Zumalakarregi kalea, 8 / Pasaia",43.318176,-1.917845,ES:Euskotren:Zone:42:,Pasaia,3,2
EUS-281,Euskotren,ES:Euskotren:Place:2667_Area_A2:,,"Zumalakarregi kalea, 8 / Pasaia","Zumalakarregi kalea, 8 / Pasaia",43.318176,-1.917845,ES:Euskotren:Zone:42:,Pasaia,3,2
EUS-282,Euskotren,ES:Euskotren:Place:2667_Area_A3:,,"Zumalakarregi kalea, 8 / Pasaia","Zumalakarregi kalea, 8 / Pasaia",43.318176,-1.917845,ES:Euskotren:Zone:42:,Pasaia,3,1
EUS-283,Euskotren,ES:Euskotren:Place:2667_Area_A4:,,Area 4,"Zumalakarregi kalea, 8 / Pasaia",43.318176,-1.917845,ES:Euskotren:Zone:42:,Pasaia,3,1
EUS-284,Euskotren,ES:Euskotren:Place:2667_Vestibulo_D1:,,"Zumalakarregi kalea, 8 / Pasaia","Zumalakarregi kalea, 8 / Pasaia",43.318176,-1.917845,ES:Euskotren:Zone:42:,Pasaia,3,1
EUS-285,Euskotren,ES:Euskotren:Place:2667_Vestibulo_H1:,,"Zumalakarregi kalea, 8 / Pasaia","Zumalakarregi kalea, 8 / Pasaia",43.318176,-1.917845,ES:Euskotren:Zone:42:,Pasaia,3,1
EUS-286,Euskotren,ES:Euskotren:Quay:1468_Plataforma_Q1:,,Atxuri,"Calle Atxuri, 5-6 / Bilbao",43.254113,-2.921513,ES:Euskotren:Zone:20:,Bilbao,0,0
EUS-287,Euskotren,ES:Euskotren:Quay:1469_Plataforma_Q1:,,Uribitarte,Calle Uribitarte / Bilbao,43.266303,-2.928733,ES:Euskotren:Zone:20:,Bilbao,0,0
EUS-288,Euskotren,ES:Euskotren:Quay:1469_Plataforma_Q2:,,Uribitarte,Calle Uribitarte / Bilbao,43.266303,-2.928733,ES:Euskotren:Zone:20:,Bilbao,0,0
EUS-289,Euskotren,ES:Euskotren:Quay:1470_Plataforma_Q1:,,San Mames,Av Juan Antonio Zunzunegui / Bilbao,43.261742,-2.948939,ES:Euskotren:Zone:20:,Bilbao,0,0
EUS-290,Euskotren,ES:Euskotren:Quay:1470_Plataforma_Q2:,,San Mames,Av Juan Antonio Zunzunegui / Bilbao,43.261742,-2.948939,ES:Euskotren:Zone:20:,Bilbao,0,0
EUS-291,Euskotren,ES:Euskotren:Quay:1471_Plataforma_Q1:,,Abando,"Calle Navarra, 5 / Bilbao",43.261052,-2.926658,ES:Euskotren:Zone:20:,Bilbao,0,0
EUS-292,Euskotren,ES:Euskotren:Quay:1472_Plataforma_Q1:,,Hospital/Ospitalea,Calle Gurtubay / Bilbao,43.259796,-2.951244,ES:Euskotren:Zone:20:,Bilbao,0,0
EUS-293,Euskotren,ES:Euskotren:Quay:1472_Plataforma_Q2:,,Hospital/Ospitalea,Calle Gurtubay / Bilbao,43.259796,-2.951244,ES:Euskotren:Zone:20:,Bilbao,0,0
EUS-294,Euskotren,ES:Euskotren:Quay:1473_Plataforma_Q1:,,Ribera,Calle de la Ribera / Bilbao,43.255795,-2.924369,ES:Euskotren:Zone:20:,Bilbao,0,0
EUS-295,Euskotren,ES:Euskotren:Quay:1474_Plataforma_Q1:,,Sabino Arana,"Av de Sabino Arana, 8 / Bilbao",43.263192,-2.946222,ES:Euskotren:Zone:20:,Bilbao,0,0
EUS-296,Euskotren,ES:Euskotren:Quay:1474_Plataforma_Q2:,,Sabino Arana,"Av de Sabino Arana, 8 / Bilbao",43.263192,-2.946222,ES:Euskotren:Zone:20:,Bilbao,0,0
EUS-297,Euskotren,ES:Euskotren:Quay:1475_Plataforma_Q1:,,Abandoibarra,Av de Abandoibarra / Bilbao,43.268585,-2.9407,ES:Euskotren:Zone:20:,Bilbao,0,0
EUS-298,Euskotren,ES:Euskotren:Quay:1475_Plataforma_Q2:,,Abandoibarra,Av de Abandoibarra / Bilbao,43.268585,-2.9407,ES:Euskotren:Zone:20:,Bilbao,0,0
EUS-299,Euskotren,ES:Euskotren:Quay:1476_Plataforma_Q1:,,Guggenheim,Av de Abandoibarra / Bilbao,43.2687,-2.936763,ES:Euskotren:Zone:20:,Bilbao,0,0
EUS-300,Euskotren,ES:Euskotren:Quay:1476_Plataforma_Q2:,,Guggenheim,Av de Abandoibarra / Bilbao,43.2687,-2.936763,ES:Euskotren:Zone:20:,Bilbao,0,0
EUS-301,Euskotren,ES:Euskotren:Quay:1477_Plataforma_Q2:,,La Casilla,"C/ Autonomía, 56 / Bilbao",43.257767,-2.944349,ES:Euskotren:Zone:20:,Bilbao,0,0
EUS-302,Euskotren,ES:Euskotren:Quay:1478_Plataforma_Q1:,,Pio Baroja,"Uribitarte Ibiltokia, 1 / Bilbao",43.264483,-2.926262,ES:Euskotren:Zone:20:,Bilbao,0,0
EUS-303,Euskotren,ES:Euskotren:Quay:1478_Plataforma_Q2:,,Pio Baroja,"Uribitarte Ibiltokia, 1 / Bilbao",43.264483,-2.926262,ES:Euskotren:Zone:20:,Bilbao,0,0
EUS-304,Euskotren,ES:Euskotren:Quay:1479_Plataforma_Q1:,,Euskalduna,Av de Abandoibarra / Bilbao,43.266261,-2.943894,ES:Euskotren:Zone:20:,Bilbao,0,0
EUS-305,Euskotren,ES:Euskotren:Quay:1479_Plataforma_Q2:,,Euskalduna,Av de Abandoibarra / Bilbao,43.266261,-2.943894,ES:Euskotren:Zone:20:,Bilbao,0,0
EUS-306,Euskotren,ES:Euskotren:Quay:1480_Plataforma_Q1:,,Arriaga,"Calle de la Ribera, 4 / Bilbao",43.25907,-2.925938,ES:Euskotren:Zone:20:,Bilbao,0,0
EUS-307,Euskotren,ES:Euskotren:Quay:1480_Plataforma_Q2:,,Arriaga,"Calle de la Ribera, 4 / Bilbao",43.25907,-2.925938,ES:Euskotren:Zone:20:,Bilbao,0,0
EUS-308,Euskotren,ES:Euskotren:Quay:1481_Plataforma_Q1:,,Basurto,,43.257993,-2.949072,ES:Euskotren:Zone:20:,Euskotren,0,0
EUS-309,Euskotren,ES:Euskotren:Quay:1481_Plataforma_Q2:,,Basurto,,43.257993,-2.949072,ES:Euskotren:Zone:20:,Euskotren,0,0
EUS-310,Euskotren,ES:Euskotren:Quay:1559_Plataforma_Q1:,,Gernikako Arbola,Gernikako Arbola Kalea / Vitoria-Gasteiz,42.86482,-2.68086,ES:Euskotren:Zone:70:,Vitoria-Gasteiz,0,0
EUS-311,Euskotren,ES:Euskotren:Quay:1559_Plataforma_Q2:,,Gernikako Arbola,Gernikako Arbola Kalea / Vitoria-Gasteiz,42.86482,-2.68086,ES:Euskotren:Zone:70:,Vitoria-Gasteiz,0,0
EUS-312,Euskotren,ES:Euskotren:Quay:1560_Plataforma_Q1:,,Abetxuko,Calle Araka / Vitoria-Gasteiz,42.876277,-2.679599,ES:Euskotren:Zone:70:,Vitoria-Gasteiz,0,0
EUS-313,Euskotren,ES:Euskotren:Quay:1560_Plataforma_Q2:,,Abetxuko,Calle Araka / Vitoria-Gasteiz,42.876277,-2.679599,ES:Euskotren:Zone:70:,Vitoria-Gasteiz,0,0
EUS-314,Euskotren,ES:Euskotren:Quay:1561_Plataforma_Q1:,,Lovaina,"Magdalena Kalea, 12 / Vitoria-Gasteiz",42.846246,-2.67851,ES:Euskotren:Zone:70:,Vitoria-Gasteiz,0,0
EUS-315,Euskotren,ES:Euskotren:Quay:1561_Plataforma_Q2:,,Lovaina,"Magdalena Kalea, 12 / Vitoria-Gasteiz",42.846246,-2.67851,ES:Euskotren:Zone:70:,Vitoria-Gasteiz,0,0
EUS-316,Euskotren,ES:Euskotren:Quay:1562_Plataforma_Q1:,,Landaberde,"Landaberde Kalea, 15-29 / Vitoria-Gasteiz",42.866206,-2.698489,ES:Euskotren:Zone:70:,Vitoria-Gasteiz,0,0
EUS-317,Euskotren,ES:Euskotren:Quay:1562_Plataforma_Q2:,,Landaberde,"Landaberde Kalea, 15-29 / Vitoria-Gasteiz",42.866206,-2.698489,ES:Euskotren:Zone:70:,Vitoria-Gasteiz,0,0
EUS-318,Euskotren,ES:Euskotren:Quay:1563_Plataforma_Q1:,,Forondako Atea/Portal De Foronda,"Forondako Atea, 32 / Vitoria-Gasteiz",42.862903,-2.684497,ES:Euskotren:Zone:70:,Vitoria-Gasteiz,0,0
EUS-319,Euskotren,ES:Euskotren:Quay:1563_Plataforma_Q2:,,Forondako Atea/Portal De Foronda,"Forondako Atea, 32 / Vitoria-Gasteiz",42.862903,-2.684497,ES:Euskotren:Zone:70:,Vitoria-Gasteiz,0,0
EUS-320,Euskotren,ES:Euskotren:Quay:1564_Plataforma_Q1:,,Legebiltzarra/Parlamento,"Alaba Jeneralaren Kalea, 1 / Vitoria-Gasteiz",42.845328,-2.674377,ES:Euskotren:Zone:70:,Vitoria-Gasteiz,0,0
EUS-321,Euskotren,ES:Euskotren:Quay:1564_Plataforma_Q2:,,Legebiltzarra/Parlamento,"Alaba Jeneralaren Kalea, 1 / Vitoria-Gasteiz",42.845328,-2.674377,ES:Euskotren:Zone:70:,Vitoria-Gasteiz,0,0
EUS-322,Euskotren,ES:Euskotren:Quay:1565_Plataforma_Q1:,,Ibaiondo,"Landaberde Kalea, 4-10 / Vitoria-Gasteiz",42.864798,-2.702087,ES:Euskotren:Zone:70:,Vitoria-Gasteiz,0,0
EUS-323,Euskotren,ES:Euskotren:Quay:1565_Plataforma_Q2:,,Ibaiondo,"Landaberde Kalea, 4-10 / Vitoria-Gasteiz",42.864798,-2.702087,ES:Euskotren:Zone:70:,Vitoria-Gasteiz,0,0
EUS-324,Euskotren,ES:Euskotren:Quay:1566_Plataforma_Q1:,,Europa,"Gasteiz Hiribidea, 74 / Vitoria-Gasteiz",42.852541,-2.680251,ES:Euskotren:Zone:70:,Vitoria-Gasteiz,0,0
EUS-325,Euskotren,ES:Euskotren:Quay:1566_Plataforma_Q2:,,Europa,"Gasteiz Hiribidea, 74 / Vitoria-Gasteiz",42.852541,-2.680251,ES:Euskotren:Zone:70:,Vitoria-Gasteiz,0,0
EUS-326,Euskotren,ES:Euskotren:Quay:1567_Plataforma_Q1:,,Lakuabizkarra,"Wellingtongo Dukea Kalea, 27 / Vitoria-Gasteiz",42.863127,-2.694579,ES:Euskotren:Zone:70:,Vitoria-Gasteiz,0,0
EUS-327,Euskotren,ES:Euskotren:Quay:1567_Plataforma_Q2:,,Lakuabizkarra,"Wellingtongo Dukea Kalea, 27 / Vitoria-Gasteiz",42.863127,-2.694579,ES:Euskotren:Zone:70:,Vitoria-Gasteiz,0,0
EUS-328,Euskotren,ES:Euskotren:Quay:1568_Plataforma_Q1:,,Kristo,"Calle del Cristo, 2 / Vitoria-Gasteiz",42.874085,-2.6776,ES:Euskotren:Zone:70:,Vitoria-Gasteiz,0,0
EUS-329,Euskotren,ES:Euskotren:Quay:1569_Plataforma_Q1:,,Artapadura,"Arriagako Atea, 76 / Vitoria-Gasteiz",42.869514,-2.680272,ES:Euskotren:Zone:70:,Vitoria-Gasteiz,0,0
EUS-330,Euskotren,ES:Euskotren:Quay:1569_Plataforma_Q2:,,Artapadura,"Arriagako Atea, 76 / Vitoria-Gasteiz",42.869514,-2.680272,ES:Euskotren:Zone:70:,Vitoria-Gasteiz,0,0
EUS-331,Euskotren,ES:Euskotren:Quay:1570_Plataforma_Q1:,,Arriaga,"Arriagako Atea, 64 / Vitoria-Gasteiz",42.866638,-2.678658,ES:Euskotren:Zone:70:,Vitoria-Gasteiz,0,0
EUS-332,Euskotren,ES:Euskotren:Quay:1570_Plataforma_Q2:,,Arriaga,"Arriagako Atea, 64 / Vitoria-Gasteiz",42.866638,-2.678658,ES:Euskotren:Zone:70:,Vitoria-Gasteiz,0,0
EUS-333,Euskotren,ES:Euskotren:Quay:1571_Plataforma_Q1:,,Intermodal,"Forondako Atea, 7 / Vitoria-Gasteiz",42.86036,-2.682798,ES:Euskotren:Zone:70:,Vitoria-Gasteiz,0,0
EUS-334,Euskotren,ES:Euskotren:Quay:1571_Plataforma_Q2:,,Intermodal,"Forondako Atea, 7 / Vitoria-Gasteiz",42.86036,-2.682798,ES:Euskotren:Zone:70:,Vitoria-Gasteiz,0,0
EUS-335,Euskotren,ES:Euskotren:Quay:1572_Plataforma_Q1:,,Honduras,"Honduras Kalea, 5-7 / Vitoria-Gasteiz",42.857247,-2.681146,ES:Euskotren:Zone:70:,Vitoria-Gasteiz,0,0
EUS-336,Euskotren,ES:Euskotren:Quay:1572_Plataforma_Q2:,,Honduras,"Honduras Kalea, 5-7 / Vitoria-Gasteiz",42.857247,-2.681146,ES:Euskotren:Zone:70:,Vitoria-Gasteiz,0,0
EUS-337,Euskotren,ES:Euskotren:Quay:1573_Plataforma_Q1:,,Angulema,"Angulema Kalea, 5 / Vitoria-Gasteiz",42.84336,-2.667699,ES:Euskotren:Zone:70:,Vitoria-Gasteiz,0,0
EUS-338,Euskotren,ES:Euskotren:Quay:1573_Plataforma_Q2:,,Angulema,"Angulema Kalea, 5 / Vitoria-Gasteiz",42.84336,-2.667699,ES:Euskotren:Zone:70:,Vitoria-Gasteiz,0,0
EUS-339,Euskotren,ES:Euskotren:Quay:1574_Plataforma_Q1:,,Euskal Herria,Euskal Herria Bulebarra / Vitoria-Gasteiz,42.85806,-2.685054,ES:Euskotren:Zone:70:,Vitoria-Gasteiz,0,0
EUS-340,Euskotren,ES:Euskotren:Quay:1574_Plataforma_Q2:,,Euskal Herria,Euskal Herria Bulebarra / Vitoria-Gasteiz,42.85806,-2.685054,ES:Euskotren:Zone:70:,Vitoria-Gasteiz,0,0
EUS-341,Euskotren,ES:Euskotren:Quay:1575_Plataforma_Q1:,,Antso Jakituna/Sancho El Sabio,Antso Jakitunaren Kalea / Vitoria-Gasteiz,42.848114,-2.679946,ES:Euskotren:Zone:70:,Vitoria-Gasteiz,0,0
EUS-342,Euskotren,ES:Euskotren:Quay:1575_Plataforma_Q2:,,Antso Jakituna/Sancho El Sabio,Antso Jakitunaren Kalea / Vitoria-Gasteiz,42.848114,-2.679946,ES:Euskotren:Zone:70:,Vitoria-Gasteiz,0,0
EUS-343,Euskotren,ES:Euskotren:Quay:1576_Plataforma_Q1:,,Wellington,"Wellingtongo Dukea Kalea, 23 / Vitoria-Gasteiz",42.85995,-2.69232,ES:Euskotren:Zone:70:,Vitoria-Gasteiz,0,0
EUS-344,Euskotren,ES:Euskotren:Quay:1576_Plataforma_Q2:,,Wellington,"Wellingtongo Dukea Kalea, 23 / Vitoria-Gasteiz",42.85995,-2.69232,ES:Euskotren:Zone:70:,Vitoria-Gasteiz,0,0
EUS-345,Euskotren,ES:Euskotren:Quay:1577_Plataforma_Q1:,,Kañabenta,Kainabenta Plaza / Vitoria-Gasteiz,42.873816,-2.68126,ES:Euskotren:Zone:70:,Vitoria-Gasteiz,0,0
EUS-346,Euskotren,ES:Euskotren:Quay:1577_Plataforma_Q2:,,Kañabenta,Kainabenta Plaza / Vitoria-Gasteiz,42.873816,-2.68126,ES:Euskotren:Zone:70:,Vitoria-Gasteiz,0,0
EUS-347,Euskotren,ES:Euskotren:Quay:1578_Plataforma_Q1:,,Txagorritxu,"Ronda de Circunvalación, 2-20 / Vitoria-Gasteiz",42.856916,-2.689028,ES:Euskotren:Zone:70:,Vitoria-Gasteiz,0,0
EUS-348,Euskotren,ES:Euskotren:Quay:1578_Plataforma_Q2:,,Txagorritxu,"Ronda de Circunvalación, 2-20 / Vitoria-Gasteiz",42.856916,-2.689028,ES:Euskotren:Zone:70:,Vitoria-Gasteiz,0,0
EUS-349,Euskotren,ES:Euskotren:Quay:1580_Plataforma_Q1:,,La Escontrilla,"Calle de Funikular, 30 / Valle de Trápaga-Trapagaran",43.301233,-3.04203,ES:Euskotren:Zone:50:,Valle de Trápaga-Trapagaran,0,0
EUS-350,Euskotren,ES:Euskotren:Quay:1581_Plataforma_Q1:,,Larreineta,"Barrio Reineta, 59 / Valle de Trápaga-Trapagaran",43.292442,-3.049087,ES:Euskotren:Zone:50:,Valle de Trápaga-Trapagaran,0,0
EUS-351,Euskotren,ES:Euskotren:Quay:2576_Plataforma_Q1:,,Lutxana-Erandio,San Jose de Lutxana Auzoa / Erandio,43.291154,-2.969765,ES:Euskotren:Zone:2:,Erandio,0,1
EUS-352,Euskotren,ES:Euskotren:Quay:2577_Plataforma_Q1:,,Zazpikaleak/Casco Viejo-Bilbao,Plazuela de San Nicolás / Bilbao,43.260176,-2.921842,ES:Euskotren:Zone:3:,Bilbao,0,1
EUS-353,Euskotren,ES:Euskotren:Quay:2577_Plataforma_Q2:,,Zazpikaleak/Casco Viejo-Bilbao,Plazuela de San Nicolás / Bilbao,43.26021,-2.921805,ES:Euskotren:Zone:3:,Bilbao,0,1
EUS-354,Euskotren,ES:Euskotren:Quay:2579_Plataforma_Q1:,,Bermeo,"Santamañe Kalea, s/n bajo / Bermeo",43.417659,-2.723231,ES:Euskotren:Zone:8:,Bermeo,0,1
EUS-355,Euskotren,ES:Euskotren:Quay:2580_Plataforma_Q1:,,Lasarte-Oria,"Avd. Donostia, 1 bajo / Lasarte-Oria",43.271043,-2.020272,ES:Euskotren:Zone:42:,Lasarte-Oria,0,1
EUS-356,Euskotren,ES:Euskotren:Quay:2580_Plataforma_Q2:,,Lasarte-Oria,"Avd. Donostia, 1 bajo / Lasarte-Oria",43.271043,-2.020272,ES:Euskotren:Zone:42:,Lasarte-Oria,0,1
EUS-357,Euskotren,ES:Euskotren:Quay:2581_Plataforma_Q1:,,Amara-Donostia,"Plaza Easo, 9 / Donostia-San Sebastián",43.312394,-1.981561,ES:Euskotren:Zone:42:,Donostia-San Sebastián,0,2
EUS-358,Euskotren,ES:Euskotren:Quay:2581_Plataforma_Q2:,,Amara-Donostia,"Plaza Easo, 9 / Donostia-San Sebastián",43.312781,-1.981583,ES:Euskotren:Zone:42:,Donostia-San Sebastián,0,1
EUS-359,Euskotren,ES:Euskotren:Quay:2581_Plataforma_Q3:,,Amara-Donostia,"Plaza Easo, 9 / Donostia-San Sebastián",43.312828,-1.981589,ES:Euskotren:Zone:42:,Donostia-San Sebastián,0,1
EUS-360,Euskotren,ES:Euskotren:Quay:2581_Plataforma_Q4:,,Amara-Donostia,"Plaza Easo, 9 / Donostia-San Sebastián",43.312824,-1.981487,ES:Euskotren:Zone:42:,Donostia-San Sebastián,0,1
EUS-361,Euskotren,ES:Euskotren:Quay:2581_Plataforma_Q5:,,Amara-Donostia,"Plaza Easo, 9 / Donostia-San Sebastián",43.312878,-1.981465,ES:Euskotren:Zone:42:,Donostia-San Sebastián,0,1
EUS-362,Euskotren,ES:Euskotren:Quay:2581_Plataforma_Q6:,,Amara-Donostia,"Plaza Easo, 9 / Donostia-San Sebastián",43.312878,-1.981465,ES:Euskotren:Zone:42:,Donostia-San Sebastián,0,1
EUS-363,Euskotren,ES:Euskotren:Quay:2581_Plataforma_Q7:,,Amara-Donostia,"Plaza Easo, 9 / Donostia-San Sebastián",43.312878,-1.981465,ES:Euskotren:Zone:42:,Donostia-San Sebastián,0,1
EUS-364,Euskotren,ES:Euskotren:Quay:2581_Plataforma_Q8:,,Amara-Donostia,"Plaza Easo, 9 / Donostia-San Sebastián",43.312878,-1.981465,ES:Euskotren:Zone:42:,Donostia-San Sebastián,0,1
EUS-365,Euskotren,ES:Euskotren:Quay:2581_Plataforma_Q9:,,Amara-Donostia,"Plaza Easo, 9 / Donostia-San Sebastián",43.312878,-1.981465,ES:Euskotren:Zone:42:,Donostia-San Sebastián,0,1
EUS-366,Euskotren,ES:Euskotren:Quay:2582_Plataforma_Q1:,,Hendaia,"Boulevard de Gaulle, s/n / Hendaia",43.352477,-1.782269,ES:Euskotren:Zone:43:,Hendaia,0,1
EUS-367,Euskotren,ES:Euskotren:Quay:2582_Plataforma_Q2:,,Hendaia,"Boulevard de Gaulle, s/n / Hendaia",43.352477,-1.782269,ES:Euskotren:Zone:43:,Hendaia,0,1
EUS-368,Euskotren,ES:Euskotren:Quay:2584_Plataforma_Q1:,,San Pelaio-Zarautz,"Calle de María Etxetxiki, 89-91 / Zarautz",43.283477,-2.159935,ES:Euskotren:Zone:41:,Zarautz,0,1
EUS-369,Euskotren,ES:Euskotren:Quay:2585_Plataforma_Q1:,,Ola-Sondika,"San Martin Bidea, 1 / Sondika",43.291844,-2.925072,ES:Euskotren:Zone:2:,Sondika,0,1
EUS-370,Euskotren,ES:Euskotren:Quay:2586_Plataforma_Q1:,,Amorebieta Geralekua,"Calle Txiki Otaegi, 5 / Amorebieta-Etxano",43.221718,-2.735128,ES:Euskotren:Zone:6:,Amorebieta-Etxano,0,1
EUS-371,Euskotren,ES:Euskotren:Quay:2587_Plataforma_Q1:,,Lemoa,"Calle de la Estación, 10 / Lemoa",43.207099,-2.775422,ES:Euskotren:Zone:6:,Lemoa,0,1
EUS-372,Euskotren,ES:Euskotren:Quay:2587_Plataforma_Q2:,,Lemoa,"Calle de la Estación, 10 / Lemoa",43.207099,-2.775422,ES:Euskotren:Zone:6:,Lemoa,0,1
EUS-373,Euskotren,ES:Euskotren:Quay:2587_Plataforma_Q3:,,Lemoa,"Calle de la Estación, 10 / Lemoa",43.207099,-2.775422,ES:Euskotren:Zone:6:,Lemoa,0,1
EUS-374,Euskotren,ES:Euskotren:Quay:2588_Plataforma_Q1:,,Lurgorri-Gernika,"Calle de Iparraguirre, 48 / Gernika-Lumo",43.306617,-2.680377,ES:Euskotren:Zone:8:,Gernika-Lumo,0,1
EUS-375,Euskotren,ES:Euskotren:Quay:2589_Plataforma_Q1:,,Irun,"Paseo de Colón, 25 / Irun",43.341377,-1.795883,ES:Euskotren:Zone:43:,Irun,0,1
EUS-376,Euskotren,ES:Euskotren:Quay:2589_Plataforma_Q2:,,Irun,"Paseo de Colón, 25 / Irun",43.341409,-1.79598,ES:Euskotren:Zone:43:,Irun,0,1
EUS-377,Euskotren,ES:Euskotren:Quay:2590_Plataforma_Q1:,,Anoeta-Donostia,"Paseo de Anoeta, 32 / Donostia-San Sebastián",43.302124,-1.975369,ES:Euskotren:Zone:42:,Donostia-San Sebastián,0,1
EUS-378,Euskotren,ES:Euskotren:Quay:2590_Plataforma_Q2:,,Anoeta-Donostia,"Paseo de Anoeta, 32 / Donostia-San Sebastián",43.302124,-1.975369,ES:Euskotren:Zone:42:,Donostia-San Sebastián,0,1
EUS-379,Euskotren,ES:Euskotren:Quay:2591_Plataforma_Q1:,,Etxebarri,"Calle de Santa Ana, 10 / Etxebarri",43.245392,-2.890708,ES:Euskotren:Zone:4:,Etxebarri,0,1
EUS-380,Euskotren,ES:Euskotren:Quay:2591_Plataforma_Q2:,,Etxebarri,"Calle de Santa Ana, 10 / Etxebarri",43.245385,-2.890944,ES:Euskotren:Zone:4:,Etxebarri,0,1
EUS-381,Euskotren,ES:Euskotren:Quay:2592_Plataforma_Q1:,,Aia-Orio,"Olazkoegia auzoa, 64, bajo / Aia",43.274211,-2.126171,ES:Euskotren:Zone:41:,Aia,0,1
EUS-382,Euskotren,ES:Euskotren:Quay:2592_Plataforma_Q2:,,Aia-Orio,"Olazkoegia auzoa, 64, bajo / Aia",43.274211,-2.126171,ES:Euskotren:Zone:41:,Aia,0,1
EUS-383,Euskotren,ES:Euskotren:Quay:2593_Plataforma_Q1:,,Institutoa-Gernika,"Calle de Carles Gongoiti, s/n / Gernika-Lumo",43.31991,-2.676826,ES:Euskotren:Zone:8:,Gernika-Lumo,0,1
EUS-384,Euskotren,ES:Euskotren:Quay:2594_Plataforma_Q1:,,Unibertsitatea-Eibar,"Av de Otaola, 24B / Eibar",43.180683,-2.487378,ES:Euskotren:Zone:40:,Eibar,0,2
EUS-385,Euskotren,ES:Euskotren:Quay:2594_Plataforma_Q2:,,Unibertsitatea-Eibar,"Av de Otaola, 24B / Eibar",43.180598,-2.48751,ES:Euskotren:Zone:40:,Eibar,0,1
EUS-386,Euskotren,ES:Euskotren:Quay:2595_Plataforma_Q1:,,Sondika,"Mintxine bidea, 4 / Sondika",43.298278,-2.928255,ES:Euskotren:Zone:2:,Sondika,0,1
EUS-387,Euskotren,ES:Euskotren:Quay:2595_Plataforma_Q2:,,Sondika,"Mintxine bidea, 4 / Sondika",43.298351,-2.928092,ES:Euskotren:Zone:2:,Sondika,0,1
EUS-388,Euskotren,ES:Euskotren:Quay:2596_Plataforma_Q1:,,Muxika,"Barrio de la Astelarre, 93 / Muxika",43.286718,-2.689477,ES:Euskotren:Zone:8:,Muxika,0,1
EUS-389,Euskotren,ES:Euskotren:Quay:2596_Plataforma_Q2:,,Muxika,"Barrio de la Astelarre, 93 / Muxika",43.286597,-2.689391,ES:Euskotren:Zone:8:,Muxika,0,1
EUS-390,Euskotren,ES:Euskotren:Quay:2597_Plataforma_Q1:,,Matiko-Bilbao,Calle Tiboli / Bilbao,43.268994,-2.92555,ES:Euskotren:Zone:3:,Bilbao,0,1
EUS-391,Euskotren,ES:Euskotren:Quay:2597_Plataforma_Q2:,,Matiko-Bilbao,Calle Tiboli / Bilbao,43.269054,-2.925537,ES:Euskotren:Zone:3:,Bilbao,0,1
EUS-392,Euskotren,ES:Euskotren:Quay:2598_Plataforma_Q1:,,Zuhatzu-Galdakao,"Calle Txomin Egileor, 48 / Galdakao",43.228832,-2.854063,ES:Euskotren:Zone:4:,Galdakao,0,1
EUS-393,Euskotren,ES:Euskotren:Quay:2598_Plataforma_Q2:,,Zuhatzu-Galdakao,"Calle Txomin Egileor, 48 / Galdakao",43.228744,-2.854032,ES:Euskotren:Zone:4:,Galdakao,0,1
EUS-394,Euskotren,ES:Euskotren:Quay:2599_Plataforma_Q1:,,Itsasbegi-Busturia,"Barrio de Axpe, 138-141 / Busturia",43.390987,-2.693788,ES:Euskotren:Zone:8:,Busturia,0,1
EUS-395,Euskotren,ES:Euskotren:Quay:2599_Plataforma_Q2:,,Itsasbegi-Busturia,"Barrio de Axpe, 138-141 / Busturia",43.390888,-2.69366,ES:Euskotren:Zone:8:,Busturia,0,1
EUS-396,Euskotren,ES:Euskotren:Quay:2600_Plataforma_Q1:,,Berriz,"Geltoki kalea, 2, bajo / Berriz",43.16847,-2.574475,ES:Euskotren:Zone:7:,Berriz,0,1
EUS-397,Euskotren,ES:Euskotren:Quay:2600_Plataforma_Q2:,,Berriz,"Geltoki kalea, 2, bajo / Berriz",43.168413,-2.574413,ES:Euskotren:Zone:7:,Berriz,0,1
EUS-398,Euskotren,ES:Euskotren:Quay:2601_Plataforma_Q1:,,Larrondo-Loiu,"Calle Elotxelerri, s/n / Loiu",43.294342,-2.915939,ES:Euskotren:Zone:2:,Loiu,0,1
EUS-399,Euskotren,ES:Euskotren:Quay:2601_Plataforma_Q2:,,Larrondo-Loiu,"Calle Elotxelerri, s/n / Loiu",43.2943,-2.91556,ES:Euskotren:Zone:2:,Loiu,0,1
EUS-400,Euskotren,ES:Euskotren:Quay:2602_Plataforma_Q1:,,Errotabarri-Ermua,"Av de Guipuzkoa, 11-25 / Ermua",43.183154,-2.498774,ES:Euskotren:Zone:40:,Ermua,0,2
EUS-401,Euskotren,ES:Euskotren:Quay:2603_Plataforma_Q1:,,Traña-Abadiño,Calle de Trañaetxoste / Abadiño,43.165119,-2.611999,ES:Euskotren:Zone:7:,Abadiño,0,1
EUS-402,Euskotren,ES:Euskotren:Quay:2603_Plataforma_Q2:,,Traña-Abadiño,Calle de Trañaetxoste / Abadiño,43.16506,-2.612084,ES:Euskotren:Zone:7:,Abadiño,0,1
EUS-403,Euskotren,ES:Euskotren:Quay:2604_Plataforma_Q1:,,Zumaia,"Calle de Estazioko, 1, bajo / Zumaia",43.29157,-2.251655,ES:Euskotren:Zone:41:,Zumaia,0,1
EUS-404,Euskotren,ES:Euskotren:Quay:2604_Plataforma_Q2:,,Zumaia,"Calle de Estazioko, 1, bajo / Zumaia",43.291457,-2.251713,ES:Euskotren:Zone:41:,Zumaia,0,1
EUS-405,Euskotren,ES:Euskotren:Quay:2606_Plataforma_Q1:,,Euba-Amorebieta,"Barrio de Euba, 20 / Amorebieta-Etxano",43.194602,-2.696809,ES:Euskotren:Zone:6:,Amorebieta-Etxano,0,1
EUS-406,Euskotren,ES:Euskotren:Quay:2606_Plataforma_Q2:,,Euba-Amorebieta,"Barrio de Euba, 20 / Amorebieta-Etxano",43.194532,-2.696881,ES:Euskotren:Zone:6:,Amorebieta-Etxano,0,1
EUS-407,Euskotren,ES:Euskotren:Quay:2607_Plataforma_Q1:,,Lezama,"Barrio de Aretxalde, 78-84 / Lezama",43.273509,-2.835955,ES:Euskotren:Zone:2:,Lezama,0,1
EUS-408,Euskotren,ES:Euskotren:Quay:2607_Plataforma_Q2:,,Lezama,"Barrio de Aretxalde, 78-84 / Lezama",43.273509,-2.835955,ES:Euskotren:Zone:2:,Lezama,0,1
EUS-409,Euskotren,ES:Euskotren:Quay:2608_Plataforma_Q1:,,Loiola-Donostia,"Calle Zeharbidea, 6 / Donostia-San Sebastián",43.310392,-1.968091,ES:Euskotren:Zone:42:,Donostia-San Sebastián,0,0
EUS-410,Euskotren,ES:Euskotren:Quay:2608_Plataforma_Q2:,,Loiola-Donostia,"Calle Zeharbidea, 6 / Donostia-San Sebastián",43.310455,-1.968129,ES:Euskotren:Zone:42:,Donostia-San Sebastián,0,0
EUS-411,Euskotren,ES:Euskotren:Quay:2609_Plataforma_Q1:,,Txurdinaga-Bilbao,Avda. Gabriel Aresti / Bilbao,43.25807,-2.90671,ES:Euskotren:Zone:3:,Bilbao,0,0
EUS-412,Euskotren,ES:Euskotren:Quay:2609_Plataforma_Q2:,,Txurdinaga-Bilbao,Avda. Gabriel Aresti / Bilbao,43.25807,-2.90671,ES:Euskotren:Zone:3:,Bilbao,0,0
EUS-413,Euskotren,ES:Euskotren:Quay:2610_Plataforma_Q1:,,Galtzaraborda-Errenteria,"Avda. Galtzaraborda, s/n / Errenteria",43.312364,-1.906789,ES:Euskotren:Zone:42:,Errenteria,0,1
EUS-414,Euskotren,ES:Euskotren:Quay:2610_Plataforma_Q2:,,Galtzaraborda-Errenteria,"Avda. Galtzaraborda, s/n / Errenteria",43.312398,-1.906808,ES:Euskotren:Zone:42:,Errenteria,0,1
EUS-415,Euskotren,ES:Euskotren:Quay:2611_Plataforma_Q1:,,Zangroiz-Sondika,"Carr. Asua-Erletxes, 35 / Sondika",43.300303,-2.940957,ES:Euskotren:Zone:2:,Sondika,0,1
EUS-416,Euskotren,ES:Euskotren:Quay:2612_Plataforma_Q1:,,Oiartzun,"Barrio Arragua, s/n / Oiartzun",43.308662,-1.879714,ES:Euskotren:Zone:42:,Oiartzun,0,1
EUS-417,Euskotren,ES:Euskotren:Quay:2612_Plataforma_Q2:,,Oiartzun,"Barrio Arragua, s/n / Oiartzun",43.308662,-1.879714,ES:Euskotren:Zone:42:,Oiartzun,0,1
EUS-418,Euskotren,ES:Euskotren:Quay:2613_Plataforma_Q1:,,Arroa-Zestoa,"Barrio de San Isidro, 3 / Zestoa",43.278328,-2.270813,ES:Euskotren:Zone:41:,Zestoa,0,1
EUS-419,Euskotren,ES:Euskotren:Quay:2614_Plataforma_Q1:,,Derio,"Barrio de Arteaga, 14 / Derio",43.290916,-2.887485,ES:Euskotren:Zone:2:,Derio,0,1
EUS-420,Euskotren,ES:Euskotren:Quay:2614_Plataforma_Q2:,,Derio,"Barrio de Arteaga, 14 / Derio",43.290916,-2.887485,ES:Euskotren:Zone:2:,Derio,0,1
EUS-421,Euskotren,ES:Euskotren:Quay:2615_Plataforma_Q1:,,Axpe-Busturia,"Barrio de Axpe, 35 / Busturia",43.380121,-2.693045,ES:Euskotren:Zone:8:,Busturia,0,1
EUS-422,Euskotren,ES:Euskotren:Quay:2616_Plataforma_Q1:,,Mundaka,"Calle Geltoki, 1 bajo / Mundaka",43.408842,-2.701085,ES:Euskotren:Zone:8:,Mundaka,0,2
EUS-423,Euskotren,ES:Euskotren:Quay:2616_Plataforma_Q2:,,Mundaka,"Calle Geltoki, 1 bajo / Mundaka",43.408842,-2.701085,ES:Euskotren:Zone:8:,Mundaka,0,1
EUS-424,Euskotren,ES:Euskotren:Quay:2617_Plataforma_Q1:,,Zurbaranbarri-Bilbao,Calle Zumaia / Bilbao,43.26495,-2.914971,ES:Euskotren:Zone:3:,Bilbao,0,1
EUS-425,Euskotren,ES:Euskotren:Quay:2617_Plataforma_Q2:,,Zurbaranbarri-Bilbao,Calle Zumaia / Bilbao,43.26495,-2.914971,ES:Euskotren:Zone:3:,Bilbao,0,1
EUS-426,Euskotren,ES:Euskotren:Quay:2618_Plataforma_Q1:,,Durango,"Calle Geltoki, 2 / Durango",43.169488,-2.634781,ES:Euskotren:Zone:7:,Durango,0,1
